학교명,설립일자,본교분교구분,소재지지번주소,소재지도로명주소,시도교육청명,위도,시군구별,경도,시도명,개방ID,학제유형명,2009_학생수,2010_학생수,2011_학생수,2012_학생수,2013_학생수,2014_학생수,2015_학생수,2016_학생수,2017_학생수,2018_학생수,2019_학생수,2020_학생수,2021_학생수,2022_학생수,2023_학생수,2012_해당지역예측학생수,2013_해당지역예측학생수,2014_해당지역예측학생수,2015_해당지역예측학생수,2016_해당지역예측학생수,2017_해당지역예측학생수,2018_해당지역예측학생수,2019_해당지역예측학생수,2020_해당지역예측학생수,2021_해당지역예측학생수,2022_해당지역예측학생수,2023_해당지역예측학생수,2024_해당지역예측학생수,2025_해당지역예측학생수,2026_해당지역예측학생수,2027_해당지역예측학생수,2028_해당지역예측학생수,2029_해당지역예측학생수,2030_해당지역예측학생수,2031_해당지역예측학생수,2032_해당지역예측학생수,2033_해당지역예측학생수,2034_해당지역예측학생수,2035_해당지역예측학생수,2036_해당지역예측학생수
방이중학교,1985-04-12,본교,서울특별시 송파구 방이동 53,서울특별시 송파구 오금로11길 64,서울특별시교육청,37.51501058,서울특별시 송파구,127.1132445,서울,5829309821,중학교,891,942,919,881,809,741,629,538,457,417,409,404,387,365,319,26843.0,26349.0,24846.0,22942.0,20417.0,18763.0,17405.0,16430.0,16624.0,17342.0,18313.0,19108.0,19687.0,20183.0,19396.0,18823.0,17863.0,17400.0,16375.0,15043.0,13967.0,12782.0,11684.0,10544.0,9721.0
율곡중학교,1955-05-03,본교,경기도 파주시 법원읍 법원리 378,경기도 파주시 법원읍 사임당로905번길 10,경기도교육청,37.8493834,파주시,126.8811406,경기,8512182414,중학교,260,271,254,230,207,204,205,173,146,129,126,122,121,104,85,7115.0,7193.0,7266.0,7669.0,7848.0,7757.0,7582.0,7886.0,8943.0,9750.0,9896.0,10186.0,10853.0,12112.0,12293.0,12358.0,12054.0,11965.0,11363.0,10512.0,9713.0,8995.0,8310.0,7963.0,7700.0
어유중학교,1979-10-28,본교,경기도 파주시 적성면 어유지리 306,경기도 파주시 적성면 율곡로 2875,경기도교육청,37.99392706,파주시,126.9882777,경기,5073030948,중학교,37,31,30,34,27,29,23,22,23,29,24,26,25,23,32,7115.0,7193.0,7266.0,7669.0,7848.0,7757.0,7582.0,7886.0,8943.0,9750.0,9896.0,10186.0,10853.0,12112.0,12293.0,12358.0,12054.0,11965.0,11363.0,10512.0,9713.0,8995.0,8310.0,7963.0,7700.0
학산여자중학교,1951-08-06,본교,부산광역시 동래구 명장동 산85-18,부산광역시 동래구 충렬사로51번길 61,부산광역시교육청,35.20475284,부산광역시 동래구,129.096168,부산,6917365610,중학교,866,870,826,762,667,619,562,497,443,374,331,300,295,269,262,9063.0,8756.0,8263.0,7412.0,6520.0,6002.0,5603.0,5391.0,5491.0,5849.0,5939.0,5899.0,5930.0,6173.0,5937.0,5699.0,5421.0,5383.0,5028.0,4492.0,4046.0,3858.0,3777.0,3757.0,3548.0
해미중학교,1952-04-15,본교,충청남도 서산시 해미면 읍내리 450-1,충청남도 서산시 해미면 남문2로 93,충청남도교육청,36.71512952,서산시,126.5445746,충남,6390202641,중학교,410,382,376,354,355,359,339,323,279,256,230,222,206,195,188,6657.0,6570.0,6281.0,5730.0,5132.0,4792.0,4577.0,4468.0,4694.0,4940.0,5116.0,5041.0,5064.0,5154.0,5040.0,5028.0,4946.0,4909.0,4627.0,4301.0,3930.0,3640.0,3330.0,3173.0,2925.0
서울대학교사범대학부설여자중학교,1969-03-03,본교,서울특별시 종로구 동숭동 199-51,서울특별시 종로구 대학로 64,서울특별시교육청,37.5775997,서울특별시 종로구,127.0042955,서울,5685700595,중학교,741,745,724,739,726,691,625,520,489,444,429,405,406,362,335,6081.0,5852.0,5563.0,5075.0,4540.0,4153.0,3843.0,3578.0,3486.0,3519.0,3475.0,3378.0,3305.0,3310.0,3076.0,2878.0,2684.0,2657.0,2441.0,2179.0,2006.0,1846.0,1730.0,1521.0,1388.0
서산중학교,1946-12-16,본교,충청남도 서산시 석남동 57-1,충청남도 서산시 덕지천로 90,충청남도교육청,36.76904553,서산시,126.4586303,충남,4123287022,중학교,919,982,972,941,960,937,950,859,847,810,803,825,890,914,894,6657.0,6570.0,6281.0,5730.0,5132.0,4792.0,4577.0,4468.0,4694.0,4940.0,5116.0,5041.0,5064.0,5154.0,5040.0,5028.0,4946.0,4909.0,4627.0,4301.0,3930.0,3640.0,3330.0,3173.0,2925.0
전라중학교,1968-03-28,본교,전북특별자치도 전주시 덕진구 송천동2가 1297,전북특별자치도 전주시 덕진구 세병로 196,전북특별자치도교육청,35.87992086,덕진구,127.131387,전북,4952820777,중학교,387,344,355,296,264,239,335,386,444,420,388,357,321,266,388,12254.0,12609.0,12264.0,11477.0,9934.0,9072.0,8441.0,8077.0,8167.0,8380.0,8422.0,8322.0,8234.0,8394.0,8035.0,7704.0,7451.0,7138.0,6783.0,6213.0,5966.0,5661.0,5476.0,5152.0,4883.0
창원상남중학교,2002-01-03,본교,경상남도 창원시 성산구 가음정동 689,경상남도 창원시 성산구 동산로55번길 9,경상남도교육청,35.21471852,성산구,128.6843651,경남,5736498415,중학교,1089,1004,987,903,842,764,669,594,561,590,565,580,613,630,606,0.0,0.0,0.0,0.0,0.0,0.0,0.0,0.0,0.0,0.0,0.0,0.0,0.0,8504.0,8294.0,7798.0,7070.0,6414.0,5674.0,5142.0,4627.0,4147.0,3819.0,3680.0,3770.0
중리중학교,1980-01-24,본교,대구광역시 서구 중리동 105-1,대구광역시 서구 국채보상로34길 63,대구광역시교육청,35.86471469,대구광역시 서구,128.5514912,대구,6179826259,중학교,1061,1030,926,837,762,694,667,624,606,555,518,529,535,534,510,11827.0,10571.0,9614.0,8540.0,7486.0,6640.0,5919.0,5274.0,4882.0,4671.0,4304.0,3974.0,4003.0,4311.0,4403.0,4216.0,3870.0,3593.0,3196.0,2644.0,2072.0,1613.0,1310.0,1117.0,1077.0
신능중학교,1996-09-01,본교,경기도 고양시 덕양구 행신동 980,경기도 고양시 덕양구 충장로 78,경기도교육청,37.619567,덕양구,126.8354977,경기,2762055218,중학교,1015,932,840,727,674,612,593,578,546,509,460,409,399,354,336,19352.0,19108.0,17854.0,16221.0,14709.0,13987.0,13224.0,12371.0,12051.0,11912.0,11665.0,11361.0,11273.0,11260.0,10640.0,10430.0,10476.0,10789.0,10443.0,9422.0,8575.0,8234.0,8387.0,8712.0,8679.0
갈매중학교,2016-06-01,본교,경기도 구리시 갈매동 382-5,경기도 구리시 갈매순환로 121,경기도교육청,37.6307988,구리시,127.1199091,경기,6396526217,중학교,0,0,0,0,0,0,0,0,167,347,464,520,594,668,757,7484.0,7079.0,6763.0,6650.0,6475.0,6363.0,6007.0,5764.0,5930.0,6139.0,6058.0,5833.0,5707.0,5701.0,5378.0,4949.0,4571.0,4276.0,4151.0,3964.0,3800.0,3509.0,3117.0,2824.0,2624.0
사직중학교,1981-03-05,본교,부산광역시 동래구 사직동 598-1,부산광역시 동래구 쇠미로51번길 30,부산광역시교육청,35.199472,부산광역시 동래구,129.0514137,부산,1691980957,중학교,1157,1155,1121,1072,1021,988,920,846,851,873,844,876,894,883,863,9063.0,8756.0,8263.0,7412.0,6520.0,6002.0,5603.0,5391.0,5491.0,5849.0,5939.0,5899.0,5930.0,6173.0,5937.0,5699.0,5421.0,5383.0,5028.0,4492.0,4046.0,3858.0,3777.0,3757.0,3548.0
진영중학교,2007-03-01,본교,경상남도 김해시 진영읍 진영리 1611-6,경상남도 김해시 진영읍 장등로 29,경상남도교육청,35.30905482,김해시,128.7344574,경남,1262366175,중학교,684,756,732,738,723,712,716,743,762,792,888,963,950,903,883,16101.0,16106.0,15544.0,14960.0,14827.0,15191.0,15569.0,15515.0,16058.0,16405.0,16465.0,16250.0,16347.0,16709.0,16162.0,15976.0,15529.0,15169.0,13877.0,12128.0,10859.0,9859.0,9228.0,8334.0,7852.0
포산중학교,1960-01-20,본교,대구광역시 달성군 유가읍 봉리 598,대구광역시 달성군 유가읍 테크노북로6길 10,대구광역시교육청,35.69614113,대구광역시 달성군,128.460035,대구,4463879823,중학교,292,292,258,228,214,205,200,475,729,784,670,655,691,728,764,7333.0,7244.0,7059.0,6717.0,6010.0,5579.0,5338.0,5137.0,5100.0,5160.0,5347.0,5675.0,5948.0,6279.0,6103.0,5925.0,5699.0,6098.0,6879.0,7805.0,8190.0,7867.0,7215.0,6463.0,5846.0
동항중학교,1980-02-14,본교,부산광역시 남구 감만동 176-82,부산광역시 남구 양지골로 248,부산광역시교육청,35.11907295,부산광역시 남구,129.0854314,부산,2094774186,중학교,606,625,613,585,535,445,377,339,328,320,299,293,281,288,279,9820.0,9485.0,9081.0,8522.0,7987.0,7620.0,7332.0,6858.0,6756.0,6840.0,6940.0,6978.0,7000.0,7000.0,6615.0,6287.0,5988.0,5655.0,5097.0,4452.0,3937.0,3496.0,3164.0,2793.0,2579.0
대병중학교,1956-02-13,본교,경상남도 합천군 대병면 회양리 904,경상남도 합천군 대병면 신성동길 53-16,경상남도교육청,35.51841197,합천군,128.0116543,경남,8814475953,중학교,40,46,49,47,44,74,90,94,100,98,96,85,58,46,58,1707.0,1574.0,1431.0,1239.0,1166.0,1076.0,1011.0,889.0,903.0,944.0,981.0,896.0,847.0,786.0,762.0,685.0,609.0,550.0,466.0,422.0,385.0,369.0,330.0,290.0,241.0
나성중학교,2021-03-01,본교,세종특별자치시 나성동 325-2,세종특별자치시 갈매로 298,세종특별자치시교육청,36.490922,세종특별자치시,127.2637532,세종,8334058523,중학교,0,0,0,0,0,0,0,0,0,0,0,0,114,457,572,3002.0,2964.0,2813.0,2687.0,2521.0,2597.0,2571.0,2514.0,2417.0,2403.0,2361.0,2413.0,2362.0,2703.0,2926.0,3509.0,5163.0,7349.0,9509.0,10504.0,11026.0,10990.0,10857.0,10247.0,9540.0
창원동중학교,2009-03-01,본교,경상남도 창원시 의창구 동읍 신방리 868,경상남도 창원시 의창구 동읍 동읍로 189,경상남도교육청,35.29100882,의창구,128.6749409,경남,3374875068,중학교,126,231,344,324,328,315,301,260,264,240,222,214,217,201,164,0.0,0.0,0.0,0.0,0.0,0.0,0.0,0.0,0.0,0.0,0.0,0.0,0.0,6948.0,6927.0,6958.0,6879.0,6650.0,6195.0,5517.0,5108.0,4812.0,4359.0,3793.0,3229.0
성산중학교,1997-11-06,본교,대구광역시 달서구 용산동 416-4,대구광역시 달서구 선원남로 174,대구광역시교육청,35.85674219,대구광역시 달서구,128.518682,대구,1545200824,중학교,1358,1297,1269,1174,1086,928,756,596,494,476,443,443,431,443,437,22781.0,24170.0,23767.0,22111.0,19929.0,18327.0,16817.0,15187.0,14741.0,14819.0,15123.0,15300.0,15713.0,16200.0,15893.0,15585.0,15171.0,14578.0,13259.0,11251.0,9674.0,8341.0,7531.0,6616.0,6246.0
중원중학교,1991-05-06,본교,서울특별시 노원구 중계동 511-3,서울특별시 노원구 공릉로 420,서울특별시교육청,37.64423868,서울특별시 노원구,127.0680295,서울,1729633271,중학교,1274,1294,1197,1122,1053,1010,921,781,684,650,562,525,469,426,386,23036.0,24353.0,25044.0,24187.0,22193.0,20714.0,19414.0,18265.0,17832.0,17820.0,17131.0,16197.0,15539.0,15657.0,15027.0,14679.0,13845.0,13353.0,12132.0,10521.0,8949.0,7707.0,7081.0,6723.0,6562.0
신관중학교,1984-04-27,본교,서울특별시 관악구 신림동 산168-10,서울특별시 관악구 신림로48길 17-16,서울특별시교육청,37.48020125,서울특별시 관악구,126.9344522,서울,3963440775,중학교,699,640,588,501,481,442,386,329,288,266,274,241,234,221,236,23336.0,22304.0,20827.0,19365.0,17706.0,17020.0,16622.0,16172.0,16209.0,16267.0,15845.0,14880.0,14303.0,14063.0,13465.0,12807.0,12171.0,11592.0,10452.0,9074.0,7758.0,6732.0,5857.0,5227.0,4811.0
한얼중학교,1946-10-24,본교,경상남도 김해시 진영읍 여래리 479,경상남도 김해시 진영읍 진영로265번길 9-8,경상남도교육청,35.30449312,김해시,128.7420673,경남,9456779718,중학교,348,338,350,374,392,343,288,297,323,358,348,459,527,548,466,16101.0,16106.0,15544.0,14960.0,14827.0,15191.0,15569.0,15515.0,16058.0,16405.0,16465.0,16250.0,16347.0,16709.0,16162.0,15976.0,15529.0,15169.0,13877.0,12128.0,10859.0,9859.0,9228.0,8334.0,7852.0
대천중학교,1983-11-01,본교,부산광역시 남구 대연동 643-1,부산광역시 남구 신선로 491,부산광역시교육청,35.12854485,부산광역시 남구,129.1033023,부산,8556556344,중학교,1084,1053,982,889,888,856,838,792,736,688,617,616,635,626,617,9820.0,9485.0,9081.0,8522.0,7987.0,7620.0,7332.0,6858.0,6756.0,6840.0,6940.0,6978.0,7000.0,7000.0,6615.0,6287.0,5988.0,5655.0,5097.0,4452.0,3937.0,3496.0,3164.0,2793.0,2579.0
창덕중학교,1953-04-15,본교,경상남도 창원시 의창구 동읍 용잠리 282,경상남도 창원시 의창구 동읍 의창대로900번길 12,경상남도교육청,35.277441,의창구,128.6888058,경남,5645198166,중학교,916,812,694,638,654,615,558,474,397,377,333,333,334,314,308,0.0,0.0,0.0,0.0,0.0,0.0,0.0,0.0,0.0,0.0,0.0,0.0,0.0,6948.0,6927.0,6958.0,6879.0,6650.0,6195.0,5517.0,5108.0,4812.0,4359.0,3793.0,3229.0
해동중학교,1946-04-08,본교,부산광역시 영도구 동삼동 산57,부산광역시 영도구 절영로490번길 8-22,부산광역시교육청,35.06967072,부산광역시 영도구,129.069638,부산,1559402048,중학교,653,613,569,551,528,495,424,385,353,334,301,303,304,312,287,5939.0,5425.0,4967.0,4415.0,3963.0,3508.0,3158.0,2905.0,2851.0,2856.0,2668.0,2567.0,2512.0,2538.0,2328.0,2130.0,1971.0,1906.0,1722.0,1492.0,1219.0,1039.0,901.0,876.0,904.0
장승중학교,1985-04-24,본교,서울특별시 동작구 상도동 175-1,서울특별시 동작구 장승배기로10가길 25,서울특별시교육청,37.50314858,서울특별시 동작구,126.940834,서울,4316633522,중학교,885,889,889,853,845,796,752,716,697,677,657,659,631,603,595,19083.0,18015.0,16747.0,15140.0,13721.0,13186.0,13043.0,12925.0,12709.0,12605.0,12233.0,11719.0,11512.0,11566.0,11432.0,11360.0,11120.0,10592.0,9641.0,8415.0,7458.0,6688.0,6102.0,5571.0,5222.0
은성중학교,1946-10-15,본교,서울특별시 강남구 도곡동 938-10,서울특별시 강남구 남부순환로359길 36,서울특별시교육청,37.48837857,서울특별시 강남구,127.0352324,서울,9507552862,중학교,532,516,505,529,552,505,462,435,426,426,435,443,467,487,486,18180.0,18430.0,17340.0,15735.0,13885.0,12978.0,12490.0,12460.0,13165.0,13853.0,13867.0,13810.0,13985.0,14500.0,14215.0,14108.0,13800.0,13371.0,12173.0,10518.0,9145.0,8045.0,7309.0,6556.0,6496.0
서천중학교,1946-12-12,본교,충청남도 서천군 서천읍 군사리 601,충청남도 서천군 서천읍 충절로 97,충청남도교육청,36.07540844,서천군,126.6928792,충남,7952624261,중학교,504,484,446,437,423,385,356,328,303,278,277,260,247,224,221,2278.0,2142.0,1985.0,1765.0,1553.0,1343.0,1256.0,1169.0,1147.0,1103.0,1065.0,1041.0,1041.0,1015.0,965.0,887.0,831.0,762.0,691.0,645.0,588.0,544.0,499.0,463.0,392.0
동신중학교,1968-12-03,본교,대전광역시 동구 판암동 241,대전광역시 동구 동부로 56-22,대전광역시교육청,36.320296,대전광역시 동구,127.4595324,대전,3614965498,중학교,485,437,374,352,307,247,219,167,145,119,128,133,129,111,116,10099.0,9519.0,8780.0,7906.0,6987.0,6636.0,6426.0,6299.0,6502.0,6891.0,7101.0,6955.0,6956.0,7157.0,7105.0,6814.0,6342.0,5748.0,5072.0,4257.0,3691.0,3232.0,3008.0,2823.0,2824.0
동주여자중학교,1919-04-26,본교,부산광역시 사하구 괴정동 380-1,부산광역시 사하구 사리로8번길 28,부산광역시교육청,35.100772,부산광역시 사하구,129.0013638,부산,3383184015,중학교,931,908,850,838,802,753,688,611,551,520,483,462,451,444,454,15158.0,14376.0,13255.0,11931.0,10580.0,9871.0,9233.0,8970.0,8864.0,9125.0,9171.0,9136.0,9257.0,9511.0,9309.0,8794.0,8271.0,7818.0,7159.0,6291.0,5419.0,4681.0,4006.0,3652.0,3401.0
학남중학교,2002-03-01,본교,대구광역시 북구 국우동 1085,대구광역시 북구 학남로 83,대구광역시교육청,35.94553027,대구광역시 북구,128.570413,대구,8645105719,중학교,1169,1175,1153,1173,1159,1142,982,902,863,815,784,765,757,774,738,17442.0,16896.0,16501.0,15788.0,15227.0,15524.0,15774.0,15333.0,15093.0,14769.0,14030.0,13068.0,12736.0,12967.0,12484.0,12009.0,11518.0,11295.0,10497.0,9382.0,8245.0,7421.0,6647.0,6171.0,5622.0
중산중학교,1995-09-01,본교,경기도 고양시 일산동구 중산동 1575-2,경기도 고양시 일산동구 탄중로 361,경기도교육청,37.69140401,일산동구,126.7835017,경기,7295902013,중학교,1609,1480,1311,1184,1043,905,777,726,687,621,563,517,521,497,485,0.0,0.0,0.0,0.0,0.0,0.0,0.0,0.0,6299.0,6674.0,6643.0,6505.0,6426.0,6595.0,6575.0,6455.0,6312.0,6080.0,5762.0,5216.0,4716.0,4257.0,3995.0,3900.0,3669.0
감만중학교,1975-11-14,본교,부산광역시 남구 감만동 2-1,부산광역시 남구 홍곡로 313-14,부산광역시교육청,35.12173218,부산광역시 남구,129.0892609,부산,6718814015,중학교,665,664,643,634,583,517,433,361,341,331,307,300,299,303,283,9820.0,9485.0,9081.0,8522.0,7987.0,7620.0,7332.0,6858.0,6756.0,6840.0,6940.0,6978.0,7000.0,7000.0,6615.0,6287.0,5988.0,5655.0,5097.0,4452.0,3937.0,3496.0,3164.0,2793.0,2579.0
양진중학교,2008-03-01,본교,경기도 안성시 공도읍 진사리 135-8,경기도 안성시 공도읍 진사1길 37,경기도교육청,36.98582893,안성시,127.1438654,경기,4737899661,중학교,330,511,579,610,623,656,637,647,592,547,526,517,518,473,416,5026.0,5254.0,5344.0,5526.0,5498.0,5523.0,5378.0,5319.0,5377.0,5654.0,5727.0,5671.0,5684.0,5790.0,5679.0,5318.0,4854.0,4521.0,4145.0,3679.0,3280.0,2875.0,2679.0,2521.0,2417.0
인천해원중학교,2012-03-01,본교,인천광역시 서구 청라동 103-25,인천광역시 서구 청라한내로 21,인천광역시교육청,37.52723444,인천광역시 서구,126.6280402,인천,8251627802,중학교,0,0,0,197,831,1019,1040,999,879,922,998,1057,1078,1042,1015,15753.0,15428.0,14758.0,13624.0,12117.0,11063.0,10803.0,10944.0,11809.0,12265.0,12114.0,11855.0,12093.0,13601.0,14678.0,15445.0,15302.0,14897.0,13635.0,12732.0,12099.0,11803.0,11029.0,10441.0,10499.0
단국대학교사범대학부속중학교,1947-11-03,본교,서울특별시 강남구 대치동 1013-2,서울특별시 강남구 도곡로64길 21,서울특별시교육청,37.49561749,서울특별시 강남구,127.0577682,서울,6513387382,중학교,729,747,739,705,675,601,596,606,608,585,593,595,614,614,606,18180.0,18430.0,17340.0,15735.0,13885.0,12978.0,12490.0,12460.0,13165.0,13853.0,13867.0,13810.0,13985.0,14500.0,14215.0,14108.0,13800.0,13371.0,12173.0,10518.0,9145.0,8045.0,7309.0,6556.0,6496.0
동평여자중학교,1980-01-24,본교,부산광역시 부산진구 부암동 450-1,부산광역시 부산진구 백양순환로119번길 12-39,부산광역시교육청,35.17040463,부산광역시 부산진구,129.0435305,부산,4713835954,중학교,613,614,585,558,495,461,420,399,351,330,297,297,316,329,347,13620.0,13383.0,12909.0,12127.0,11046.0,10309.0,9791.0,9536.0,9820.0,10042.0,10008.0,9744.0,9733.0,10033.0,9833.0,9572.0,9126.0,8748.0,8009.0,6998.0,6001.0,5181.0,4727.0,4530.0,4677.0
신목중학교,1986-05-12,본교,서울특별시 양천구 목동 902-1,서울특별시 양천구 목동중앙로 88,서울특별시교육청,37.53702399,서울특별시 양천구,126.8730725,서울,4293697416,중학교,2226,2178,2025,1983,1946,1791,1658,1494,1464,1412,1423,1459,1445,1421,1350,17207.0,16528.0,15710.0,14595.0,13508.0,12812.0,12349.0,12200.0,12530.0,12716.0,12269.0,11461.0,11078.0,11274.0,11143.0,10943.0,10600.0,10387.0,9736.0,8597.0,7485.0,6484.0,5924.0,5384.0,4958.0
부곡중학교,1969-11-10,본교,부산광역시 금정구 부곡동 산56-3,부산광역시 금정구 동부곡로15번길 102-20,부산광역시교육청,35.23143656,부산광역시 금정구,129.0961977,부산,2603984594,중학교,892,877,796,750,743,727,710,672,674,662,624,643,659,666,653,9886.0,9376.0,8637.0,7773.0,6823.0,6143.0,5611.0,5083.0,5000.0,4973.0,4867.0,4677.0,4706.0,4975.0,4891.0,4739.0,4557.0,4284.0,4019.0,3559.0,3284.0,2862.0,2531.0,2194.0,2042.0
강동중학교,2004-04-06,본교,대구광역시 동구 신서동 559,대구광역시 동구 동호로 112,대구광역시교육청,35.86694911,대구광역시 동구,128.729474,대구,1803476095,중학교,1217,1278,1280,1285,1295,1241,1140,982,887,869,908,951,922,920,890,13641.0,13140.0,12554.0,11377.0,10119.0,9646.0,9491.0,9228.0,9138.0,8947.0,8678.0,8549.0,8756.0,9305.0,9180.0,9153.0,9029.0,8932.0,8329.0,7449.0,6644.0,5852.0,5280.0,4873.0,4696.0
서변중학교,2005-03-01,본교,대구광역시 북구 서변동 1730,대구광역시 북구 서변로21길 14,대구광역시교육청,35.92636083,대구광역시 북구,128.595695,대구,4550583302,중학교,513,569,588,576,574,536,475,401,344,323,283,290,298,302,277,17442.0,16896.0,16501.0,15788.0,15227.0,15524.0,15774.0,15333.0,15093.0,14769.0,14030.0,13068.0,12736.0,12967.0,12484.0,12009.0,11518.0,11295.0,10497.0,9382.0,8245.0,7421.0,6647.0,6171.0,5622.0
내동중학교,1991-03-25,본교,경상남도 김해시 내동 169,경상남도 김해시 평전로 135,경상남도교육청,35.24106571,김해시,128.8589327,경남,8318521022,중학교,1112,967,949,876,882,742,598,458,409,372,350,403,400,387,245,16101.0,16106.0,15544.0,14960.0,14827.0,15191.0,15569.0,15515.0,16058.0,16405.0,16465.0,16250.0,16347.0,16709.0,16162.0,15976.0,15529.0,15169.0,13877.0,12128.0,10859.0,9859.0,9228.0,8334.0,7852.0
태랑중학교,2002-05-07,본교,서울특별시 노원구 공릉동 117,서울특별시 노원구 화랑로51나길 51,서울특별시교육청,37.62698409,서울특별시 노원구,127.0913718,서울,9368602097,중학교,976,939,886,894,905,882,791,719,718,690,683,658,661,587,555,23036.0,24353.0,25044.0,24187.0,22193.0,20714.0,19414.0,18265.0,17832.0,17820.0,17131.0,16197.0,15539.0,15657.0,15027.0,14679.0,13845.0,13353.0,12132.0,10521.0,8949.0,7707.0,7081.0,6723.0,6562.0
상인중학교,1999-10-04,본교,대구광역시 달서구 상인동 1561,대구광역시 달서구 상인로 34,대구광역시교육청,35.81135533,대구광역시 달서구,128.5501219,대구,3014702677,중학교,899,711,613,589,542,493,415,377,319,284,247,229,224,204,182,22781.0,24170.0,23767.0,22111.0,19929.0,18327.0,16817.0,15187.0,14741.0,14819.0,15123.0,15300.0,15713.0,16200.0,15893.0,15585.0,15171.0,14578.0,13259.0,11251.0,9674.0,8341.0,7531.0,6616.0,6246.0
해룡중학교,1971-03-05,본교,전라남도 영광군 영광읍 도동리 68,전라남도 영광군 영광읍 중앙로 120,전라남도교육청,35.26843387,영광군,126.513448,전남,3770851731,중학교,322,315,308,297,298,265,233,213,207,196,199,197,204,201,187,2509.0,2592.0,2501.0,2200.0,1886.0,1653.0,1506.0,1406.0,1434.0,1429.0,1450.0,1387.0,1405.0,1429.0,1374.0,1336.0,1264.0,1250.0,1178.0,1174.0,1341.0,1539.0,1541.0,1364.0,1168.0
활천중학교,2009-03-01,본교,경상남도 김해시 지내동 15,경상남도 김해시 분성로 707,경상남도교육청,35.23307213,김해시,128.9212551,경남,4705799520,중학교,208,469,733,711,666,575,500,426,404,401,383,342,332,339,325,16101.0,16106.0,15544.0,14960.0,14827.0,15191.0,15569.0,15515.0,16058.0,16405.0,16465.0,16250.0,16347.0,16709.0,16162.0,15976.0,15529.0,15169.0,13877.0,12128.0,10859.0,9859.0,9228.0,8334.0,7852.0
관동중학교,1983-06-17,본교,강원특별자치도 강릉시 교동 1427 번지,강원특별자치도 강릉시 하슬라로 20,강원특별자치도교육청,37.7551977,강릉시,128.8795637,강원,9250025391,중학교,962,946,953,952,945,915,878,786,719,671,631,625,632,633,610,8240.0,8366.0,8104.0,7633.0,6851.0,6411.0,6004.0,5628.0,5462.0,5306.0,5213.0,4935.0,4966.0,4948.0,4767.0,4394.0,4160.0,3936.0,3722.0,3356.0,3084.0,2950.0,2806.0,2735.0,2611.0
기린중학교,1953-07-02,본교,강원특별자치도 인제군 기린면 현리 765-2 번지,강원특별자치도 인제군 기린면 창암길 20,강원특별자치도교육청,37.94620605,인제군,128.3116900249,강원,7440829277,중학교,202,194,179,190,161,145,118,141,126,124,107,102,86,89,90,1488.0,1522.0,1468.0,1279.0,1115.0,1061.0,1077.0,1109.0,1179.0,1193.0,1167.0,1115.0,1078.0,1095.0,1047.0,1034.0,1039.0,1036.0,1024.0,907.0,827.0,739.0,707.0,663.0,653.0
광명북중학교,1985-12-18,본교,경기도 광명시 철산동 59,경기도 광명시 시청로 121,경기도교육청,37.48714374,광명시,126.8657712,경기,8173967123,중학교,1722,1612,1514,1405,1359,1257,1127,1016,914,859,744,710,597,513,440,17174.0,16495.0,15623.0,14464.0,13354.0,12680.0,11971.0,11087.0,10466.0,10283.0,9886.0,10342.0,11458.0,12683.0,12409.0,11334.0,10394.0,9656.0,8643.0,7402.0,6324.0,5617.0,5157.0,4861.0,4646.0
위례솔중학교,2022-05-01,본교,서울특별시 송파구 거여동 649,서울특별시 송파구 위례북로2길 10,서울특별시교육청,37.48701307,서울특별시 송파구,127.1505867,서울,1519277274,중학교,0,0,0,0,0,0,0,0,0,0,0,0,0,327,467,26843.0,26349.0,24846.0,22942.0,20417.0,18763.0,17405.0,16430.0,16624.0,17342.0,18313.0,19108.0,19687.0,20183.0,19396.0,18823.0,17863.0,17400.0,16375.0,15043.0,13967.0,12782.0,11684.0,10544.0,9721.0
정선중학교,1946-10-25,본교,강원특별자치도 정선군 정선읍 봉양리 153-1 번지,강원특별자치도 정선군 정선읍 봉양4길 15,강원특별자치도교육청,37.37821677,정선군,128.6609171,강원,4013389408,중학교,472,477,465,459,449,467,439,398,334,316,276,306,297,332,326,1426.0,1408.0,1328.0,1205.0,1047.0,950.0,880.0,860.0,888.0,847.0,868.0,813.0,812.0,793.0,734.0,719.0,649.0,613.0,522.0,462.0,440.0,423.0,415.0,351.0,314.0
광주서광중학교,1970-03-05,본교,광주광역시 남구 백운동 614-1,광주광역시 남구 진다리로24번길 13,광주광역시교육청,35.13634616,광주광역시 남구,126.9042624,광주,9821537613,중학교,650,680,656,631,587,545,520,473,436,391,364,379,364,362,363,9051.0,8347.0,7372.0,6407.0,5473.0,4887.0,4521.0,4373.0,4439.0,4667.0,4688.0,4872.0,4944.0,5159.0,4893.0,4707.0,4551.0,4509.0,4314.0,3879.0,3583.0,3236.0,3110.0,2989.0,2869.0
지산중학교,2002-03-01,본교,경기도 파주시 와동동 1356-1,경기도 파주시 미래로 532,경기도교육청,37.72474308,파주시,126.752353,경기,4252040028,중학교,1312,1223,1256,1268,1282,1254,1206,1186,1166,1040,1047,1081,1097,1120,1041,7115.0,7193.0,7266.0,7669.0,7848.0,7757.0,7582.0,7886.0,8943.0,9750.0,9896.0,10186.0,10853.0,12112.0,12293.0,12358.0,12054.0,11965.0,11363.0,10512.0,9713.0,8995.0,8310.0,7963.0,7700.0
오주중학교,1984-09-01,본교,서울특별시 송파구 오금동 59,서울특별시 송파구 동남로 281,서울특별시교육청,37.50150661,서울특별시 송파구,127.1362653,서울,4057314872,중학교,1134,1078,1041,999,986,918,802,669,573,525,473,446,434,419,423,26843.0,26349.0,24846.0,22942.0,20417.0,18763.0,17405.0,16430.0,16624.0,17342.0,18313.0,19108.0,19687.0,20183.0,19396.0,18823.0,17863.0,17400.0,16375.0,15043.0,13967.0,12782.0,11684.0,10544.0,9721.0
두송중학교,2006-03-03,본교,부산광역시 사하구 다대동 1580,부산광역시 사하구 다송로 76,부산광역시교육청,35.06065932,부산광역시 사하구,128.9829531,부산,2663530170,중학교,987,934,862,832,802,723,644,576,525,470,414,407,446,445,420,15158.0,14376.0,13255.0,11931.0,10580.0,9871.0,9233.0,8970.0,8864.0,9125.0,9171.0,9136.0,9257.0,9511.0,9309.0,8794.0,8271.0,7818.0,7159.0,6291.0,5419.0,4681.0,4006.0,3652.0,3401.0
하안북중학교,1975-12-06,본교,경기도 광명시 하안동 684,경기도 광명시 가림로 22,경기도교육청,37.46508438,광명시,126.8677256,경기,7446922719,중학교,1223,1345,1342,1334,1281,1246,1179,1057,1025,1005,978,984,1016,988,957,17174.0,16495.0,15623.0,14464.0,13354.0,12680.0,11971.0,11087.0,10466.0,10283.0,9886.0,10342.0,11458.0,12683.0,12409.0,11334.0,10394.0,9656.0,8643.0,7402.0,6324.0,5617.0,5157.0,4861.0,4646.0
센텀중학교,2006-10-04,본교,부산광역시 해운대구 재송동 1206,부산광역시 해운대구 센텀북대로 32,부산광역시교육청,35.175367,부산광역시 해운대구,129.1237586,부산,5280052423,중학교,1101,1132,1110,1132,1182,1161,1104,1078,1122,1195,1200,1229,1230,1232,1170,15190.0,15185.0,14377.0,12829.0,11206.0,10019.0,9459.0,9196.0,9727.0,10077.0,10189.0,9911.0,10090.0,10334.0,10114.0,9713.0,9262.0,8959.0,8142.0,7204.0,6307.0,5760.0,5253.0,4817.0,4487.0
북동중학교,2005-03-24,본교,대구광역시 달성군 논공읍 남리 318,대구광역시 달성군 논공읍 논공로7길 43,대구광역시교육청,35.73243383,대구광역시 달성군,128.4374066,대구,3183501064,중학교,774,766,742,748,726,703,615,459,362,332,349,312,265,235,234,7333.0,7244.0,7059.0,6717.0,6010.0,5579.0,5338.0,5137.0,5100.0,5160.0,5347.0,5675.0,5948.0,6279.0,6103.0,5925.0,5699.0,6098.0,6879.0,7805.0,8190.0,7867.0,7215.0,6463.0,5846.0
논공중학교,1996-11-09,본교,대구광역시 달성군 논공읍 남리 717-5,대구광역시 달성군 논공읍 논공로 256,대구광역시교육청,35.72382525,대구광역시 달성군,128.4572009,대구,4948958396,중학교,438,466,412,421,384,357,317,253,207,181,161,158,152,139,159,7333.0,7244.0,7059.0,6717.0,6010.0,5579.0,5338.0,5137.0,5100.0,5160.0,5347.0,5675.0,5948.0,6279.0,6103.0,5925.0,5699.0,6098.0,6879.0,7805.0,8190.0,7867.0,7215.0,6463.0,5846.0
성심여자중학교,1957-05-25,본교,서울특별시 용산구 원효로4가 1-1,서울특별시 용산구 원효로19길 49,서울특별시교육청,37.53420937,서울특별시 용산구,126.9545934,서울,6373435616,중학교,434,429,430,408,395,376,357,343,331,316,303,281,266,238,200,8629.0,8773.0,8709.0,8090.0,7243.0,6755.0,6528.0,6463.0,6651.0,6942.0,6940.0,6803.0,6780.0,7032.0,6849.0,6516.0,6072.0,5651.0,5139.0,4549.0,4155.0,3867.0,3724.0,3520.0,3356.0
용남중학교,1987-12-30,본교,충청남도 계룡시 신도안면 남선리 1319,충청남도 계룡시 신도안면 신도안2길 66,충청남도교육청,36.30064433,계룡시,127.2441239,충남,9542629182,중학교,764,784,774,696,589,525,466,601,616,651,664,691,710,683,649,1082.0,1218.0,1239.0,1167.0,1034.0,989.0,944.0,1007.0,1112.0,1242.0,1312.0,1316.0,1315.0,1245.0,1166.0,1052.0,978.0,997.0,1018.0,974.0,826.0,675.0,575.0,533.0,534.0
구암중학교,1995-03-01,본교,대구광역시 북구 구암동 694-2,대구광역시 북구 태암로 85,대구광역시교육청,35.927514,대구광역시 북구,128.557125,대구,7033370077,중학교,1200,1150,1166,1156,1111,1003,913,841,798,738,691,698,664,638,583,17442.0,16896.0,16501.0,15788.0,15227.0,15524.0,15774.0,15333.0,15093.0,14769.0,14030.0,13068.0,12736.0,12967.0,12484.0,12009.0,11518.0,11295.0,10497.0,9382.0,8245.0,7421.0,6647.0,6171.0,5622.0
안성여자중학교,1943-04-22,본교,경기도 안성시 봉남동 360,경기도 안성시 중앙2길 111,경기도교육청,37.00836663,안성시,127.275693,경기,3110563218,중학교,786,806,799,778,748,675,583,517,465,478,467,495,521,521,505,5026.0,5254.0,5344.0,5526.0,5498.0,5523.0,5378.0,5319.0,5377.0,5654.0,5727.0,5671.0,5684.0,5790.0,5679.0,5318.0,4854.0,4521.0,4145.0,3679.0,3280.0,2875.0,2679.0,2521.0,2417.0
안성중학교,1939-04-15,본교,경기도 안성시 금산동 33-12,경기도 안성시 금산길 43,경기도교육청,37.01331333,안성시,127.2704648,경기,4616809725,중학교,796,803,793,808,790,765,714,630,571,513,487,496,539,539,512,5026.0,5254.0,5344.0,5526.0,5498.0,5523.0,5378.0,5319.0,5377.0,5654.0,5727.0,5671.0,5684.0,5790.0,5679.0,5318.0,4854.0,4521.0,4145.0,3679.0,3280.0,2875.0,2679.0,2521.0,2417.0
태종대중학교,1974-12-21,본교,부산광역시 영도구 동삼동 523-1,부산광역시 영도구 함지로79번길 9,부산광역시교육청,35.07367396,부산광역시 영도구,129.0649205,부산,2242500603,중학교,575,537,527,488,474,454,373,316,286,287,257,262,260,266,267,5939.0,5425.0,4967.0,4415.0,3963.0,3508.0,3158.0,2905.0,2851.0,2856.0,2668.0,2567.0,2512.0,2538.0,2328.0,2130.0,1971.0,1906.0,1722.0,1492.0,1219.0,1039.0,901.0,876.0,904.0
한림중학교,1952-06-20,본교,경상남도 김해시 한림면 장방리 346,경상남도 김해시 한림면 한림로365번길 33,경상남도교육청,35.32172162,김해시,128.7996056,경남,1552537739,중학교,131,128,130,144,136,131,110,114,100,101,89,93,103,95,151,16101.0,16106.0,15544.0,14960.0,14827.0,15191.0,15569.0,15515.0,16058.0,16405.0,16465.0,16250.0,16347.0,16709.0,16162.0,15976.0,15529.0,15169.0,13877.0,12128.0,10859.0,9859.0,9228.0,8334.0,7852.0
용산중학교,1984-12-18,본교,대구광역시 달서구 용산동 888,대구광역시 달서구 와룡로45길 72,대구광역시교육청,35.85416455,대구광역시 달서구,128.5323609,대구,4034123420,중학교,1125,1077,1021,951,927,857,779,659,595,572,552,569,557,521,456,22781.0,24170.0,23767.0,22111.0,19929.0,18327.0,16817.0,15187.0,14741.0,14819.0,15123.0,15300.0,15713.0,16200.0,15893.0,15585.0,15171.0,14578.0,13259.0,11251.0,9674.0,8341.0,7531.0,6616.0,6246.0
호성중학교,2003-03-01,본교,경기도 안양시 동안구 호계동 781-3,경기도 안양시 동안구 호성로 55,경기도교육청,37.36691837,동안구,126.9637649,경기,6068880975,중학교,1389,1252,1126,1026,978,929,837,741,632,600,560,554,535,548,548,14486.0,14303.0,13672.0,12477.0,11340.0,11300.0,11425.0,11368.0,11255.0,11173.0,10790.0,10455.0,10243.0,10281.0,9977.0,9772.0,9635.0,9275.0,8479.0,7591.0,6977.0,6451.0,6053.0,5901.0,5779.0
경산제일중학교,1969-12-15,본교,경상북도 경산시 자인면 동부리 208,경상북도 경산시 자인면 원효로 851-16,경상북도교육청,35.815941,경산시,128.827888,경북,5545541226,중학교,60,60,54,50,55,51,49,33,29,33,39,38,38,39,40,10888.0,10901.0,10371.0,9445.0,8310.0,7577.0,7127.0,7049.0,7486.0,7771.0,7846.0,7435.0,7475.0,7646.0,7674.0,7601.0,7418.0,7476.0,7077.0,6459.0,5589.0,4838.0,4388.0,4049.0,3888.0
함양여자중학교,1960-04-07,본교,경상남도 함양군 함양읍 교산리 956,경상남도 함양군 함양읍 함양여중길 18-9,경상남도교육청,35.523951,함양군,127.7246366,경남,1906192362,중학교,486,456,454,431,465,443,401,346,309,317,307,313,308,296,287,1291.0,1309.0,1213.0,1117.0,970.0,870.0,830.0,829.0,880.0,887.0,851.0,815.0,760.0,735.0,697.0,698.0,670.0,610.0,547.0,488.0,446.0,391.0,340.0,280.0,253.0
인헌중학교,1971-05-20,본교,서울특별시 관악구 봉천동 1647,서울특별시 관악구 인헌9길 35,서울특별시교육청,37.47269621,서울특별시 관악구,126.9688402,서울,7056386113,중학교,1067,1036,1024,998,943,885,792,747,639,600,550,511,498,450,429,23336.0,22304.0,20827.0,19365.0,17706.0,17020.0,16622.0,16172.0,16209.0,16267.0,15845.0,14880.0,14303.0,14063.0,13465.0,12807.0,12171.0,11592.0,10452.0,9074.0,7758.0,6732.0,5857.0,5227.0,4811.0
하안중학교,1993-05-04,본교,경기도 광명시 하안동 25,경기도 광명시 안현로 80-1,경기도교육청,37.46738575,광명시,126.8807721,경기,5137384653,중학교,1718,1698,1564,1476,1465,1461,1310,1170,1071,970,895,803,764,666,601,17174.0,16495.0,15623.0,14464.0,13354.0,12680.0,11971.0,11087.0,10466.0,10283.0,9886.0,10342.0,11458.0,12683.0,12409.0,11334.0,10394.0,9656.0,8643.0,7402.0,6324.0,5617.0,5157.0,4861.0,4646.0
현산중학교,2004-03-01,본교,경기도 고양시 일산서구 일산동 1915,경기도 고양시 일산서구 일청로 85,경기도교육청,37.691246,일산서구,126.774003,경기,9479006111,중학교,1218,1083,1082,1012,936,810,743,659,604,563,504,490,440,448,397,0.0,0.0,0.0,0.0,0.0,0.0,0.0,0.0,7898.0,8024.0,7540.0,7059.0,6755.0,7122.0,7048.0,6898.0,6680.0,6540.0,6114.0,5366.0,4744.0,4407.0,4291.0,4149.0,3886.0
심인중학교,1953-06-05,본교,대구광역시 달성군 다사읍 죽곡리 820,대구광역시 달성군 다사읍 대실역남로1길 21,대구광역시교육청,35.853103,대구광역시 달성군,128.4667003,대구,8892423093,중학교,821,775,704,625,578,543,487,432,381,382,342,258,499,506,512,7333.0,7244.0,7059.0,6717.0,6010.0,5579.0,5338.0,5137.0,5100.0,5160.0,5347.0,5675.0,5948.0,6279.0,6103.0,5925.0,5699.0,6098.0,6879.0,7805.0,8190.0,7867.0,7215.0,6463.0,5846.0
대전변동중학교,1984-03-08,본교,대전광역시 서구 변동 54-1,대전광역시 서구 도산로181번길 39,대전광역시교육청,36.3247386,대전광역시 서구,127.3757901,대전,2605750560,중학교,723,673,646,595,588,590,517,436,377,369,351,332,329,300,295,19650.0,19711.0,19194.0,18015.0,16941.0,16500.0,15967.0,15299.0,14932.0,14790.0,14317.0,13832.0,13824.0,14211.0,14115.0,13795.0,13418.0,12983.0,12074.0,10669.0,9403.0,8461.0,7836.0,7588.0,7330.0
거진중학교,1961-04-15,본교,강원특별자치도 고성군 거진읍 봉평리 31-1,강원특별자치도 고성군 거진읍 거평로 69,강원특별자치도교육청,38.44714556,,128.4481053,강원,7452492058,중학교,165,178,154,166,178,175,137,113,87,76,77,68,75,63,69,0.0,0.0,0.0,0.0,0.0,0.0,0.0,0.0,0.0,0.0,0.0,0.0,0.0,0.0,0.0,0.0,0.0,0.0,0.0,0.0,0.0,0.0,0.0,0.0,0.0
세화여자중학교,1978-05-06,본교,서울특별시 서초구 반포동 13,서울특별시 서초구 신반포로 56-7,서울특별시교육청,37.501983,서울특별시 서초구,126.9942300139,서울,2333818018,중학교,910,1019,993,1016,1027,1028,968,931,924,873,833,833,872,829,746,13894.0,13849.0,12910.0,12167.0,11066.0,10868.0,10666.0,10760.0,10969.0,11412.0,11503.0,11995.0,12339.0,13032.0,12710.0,12655.0,12294.0,11842.0,10746.0,9587.0,8470.0,7669.0,6913.0,6265.0,5714.0
운남중학교,2021-03-01,본교,경상북도 김천시 율곡동 370,경상북도 김천시 우래1길 7,경상북도교육청,36.12200032,김천시,128.179117,경북,4341458976,중학교,0,0,0,0,0,0,0,0,0,0,0,0,208,411,597,5018.0,4949.0,4849.0,4384.0,3876.0,3513.0,3335.0,3197.0,3381.0,3641.0,3752.0,3561.0,3347.0,3349.0,3228.0,3132.0,2990.0,3115.0,3201.0,3206.0,2961.0,2737.0,2529.0,2405.0,2238.0
송광중학교,2004-03-02,본교,광주광역시 광산구 송정동 900,광주광역시 광산구 송정로 74,광주광역시교육청,35.13340294,광주광역시 광산구,126.7979492,광주,2805745720,중학교,1038,948,919,933,943,900,830,754,705,654,632,665,612,550,488,15628.0,15242.0,14583.0,13727.0,13077.0,12820.0,12623.0,12335.0,12442.0,12482.0,12303.0,12505.0,13148.0,14066.0,13853.0,13413.0,12680.0,12287.0,11303.0,10150.0,8845.0,7911.0,7444.0,7121.0,6720.0
수동중학교,1954-05-31,본교,경상남도 함양군 수동면 화산리 1010,경상남도 함양군 수동면 수동내동길 19,경상남도교육청,35.52433595,함양군,127.7895834,경남,3080569684,중학교,37,20,31,37,44,42,32,25,21,27,31,38,40,38,36,1291.0,1309.0,1213.0,1117.0,970.0,870.0,830.0,829.0,880.0,887.0,851.0,815.0,760.0,735.0,697.0,698.0,670.0,610.0,547.0,488.0,446.0,391.0,340.0,280.0,253.0
부곡여자중학교,1981-10-14,본교,부산광역시 금정구 부곡동 717-1,부산광역시 금정구 가마실로 56,부산광역시교육청,35.22332989,부산광역시 금정구,129.0953419,부산,3571666061,중학교,916,881,846,806,753,693,613,552,535,570,587,605,613,600,583,9886.0,9376.0,8637.0,7773.0,6823.0,6143.0,5611.0,5083.0,5000.0,4973.0,4867.0,4677.0,4706.0,4975.0,4891.0,4739.0,4557.0,4284.0,4019.0,3559.0,3284.0,2862.0,2531.0,2194.0,2042.0
한바다중학교,1969-10-10,본교,부산광역시 수영구 광안동 154-1,부산광역시 수영구 광안로21번가길 57,부산광역시교육청,35.15729241,부산광역시 수영구,129.1176119,부산,7368674099,중학교,751,726,676,650,598,568,562,570,558,564,512,538,552,574,568,5830.0,5538.0,5085.0,4569.0,4039.0,3772.0,3762.0,3801.0,3921.0,3937.0,3816.0,3691.0,3710.0,3900.0,3816.0,3708.0,3755.0,3838.0,3719.0,3300.0,2891.0,2596.0,2416.0,2339.0,2214.0
장곡중학교,2001-04-04,본교,경상북도 칠곡군 석적읍 중리 246,경상북도 칠곡군 석적읍 남중리8길 13,경상북도교육청,36.07345548,칠곡군,128.415088,경북,3523935079,중학교,590,652,712,821,878,970,960,1006,1016,1017,1000,1053,760,674,614,4825.0,5028.0,5494.0,5523.0,5225.0,4704.0,4492.0,4268.0,4398.0,4598.0,4645.0,4826.0,5139.0,5121.0,4601.0,3959.0,3894.0,3931.0,3707.0,3222.0,2577.0,2002.0,1569.0,1314.0,1186.0
대정중학교,1946-11-08,본교,제주특별자치도 서귀포시 대정읍 하모리 778,제주특별자치도 서귀포시 대정읍 비행장로 18,제주특별자치도교육청,33.21996162,서귀포시,126.2532327,제주,6097661077,중학교,543,532,524,521,516,491,462,388,379,374,373,332,359,361,337,7140.0,7039.0,6680.0,6150.0,5280.0,4852.0,4647.0,4716.0,4823.0,4771.0,4590.0,4342.0,4210.0,4099.0,3828.0,3602.0,3518.0,3647.0,3720.0,3520.0,3335.0,3031.0,2833.0,2585.0,2377.0
안천중학교,1991-06-05,본교,서울특별시 금천구 독산동 1089,서울특별시 금천구 한내로 69-44,서울특별시교육청,37.45952426,서울특별시 금천구,126.8874988,서울,6702258348,중학교,743,773,738,686,656,646,574,464,420,399,407,422,434,437,458,11760.0,11044.0,9988.0,8921.0,7957.0,7605.0,7342.0,7161.0,6908.0,6780.0,6397.0,6082.0,5907.0,6006.0,5743.0,5636.0,5444.0,5300.0,4978.0,4407.0,3966.0,3560.0,3258.0,3108.0,2979.0
봉영여자중학교,1951-10-08,본교,서울특별시 양천구 신정동 325-8,서울특별시 양천구 목동동로2길 68,서울특별시교육청,37.50921598,서울특별시 양천구,126.8601984,서울,5393575310,중학교,689,700,674,616,572,558,551,554,504,462,446,479,516,491,489,17207.0,16528.0,15710.0,14595.0,13508.0,12812.0,12349.0,12200.0,12530.0,12716.0,12269.0,11461.0,11078.0,11274.0,11143.0,10943.0,10600.0,10387.0,9736.0,8597.0,7485.0,6484.0,5924.0,5384.0,4958.0
백학중학교,1971-04-27,본교,경기도 연천군 백학면 두일리 568-2,경기도 연천군 백학면 두일로 79,경기도교육청,38.02503151,연천군,126.908265,경기,8600734472,중학교,70,81,95,90,69,65,55,47,36,35,35,43,47,50,48,1920.0,1942.0,1849.0,1718.0,1490.0,1410.0,1316.0,1241.0,1162.0,1105.0,1057.0,1049.0,1035.0,1115.0,1185.0,1263.0,1226.0,1192.0,1117.0,1070.0,942.0,847.0,735.0,642.0,552.0
동부중학교,1960-05-03,본교,경상남도 거제시 동부면 산양리 348,경상남도 거제시 동부면 동부로 28-6,경상남도교육청,34.82084244,거제시,128.6079629,경남,9439899504,중학교,127,128,132,133,137,139,122,89,90,81,79,58,57,52,46,8916.0,9216.0,9047.0,8444.0,7759.0,7524.0,7406.0,7533.0,8018.0,8672.0,9229.0,9590.0,9973.0,10384.0,10284.0,10262.0,10202.0,10155.0,9380.0,7877.0,6262.0,5094.0,4262.0,3603.0,2973.0
거창중학교고제분교장,1971-12-27,분교,경상남도 거창군 고제면 농산리 184,경상남도 거창군 고제면 고제로 48,경상남도교육청,35.81412414,거창군,127.8735691,경남,6336465120,중학교,22,23,28,29,23,16,16,15,13,10,9,11,7,10,7,2229.0,2172.0,2009.0,1822.0,1567.0,1478.0,1355.0,1305.0,1294.0,1339.0,1344.0,1288.0,1270.0,1278.0,1250.0,1184.0,1107.0,1066.0,984.0,912.0,798.0,742.0,679.0,616.0,589.0
등명중학교,1995-05-06,본교,서울특별시 강서구 등촌동 690-4,서울특별시 강서구 공항대로39길 39,서울특별시교육청,37.56019335,서울특별시 강서구,126.8433041,서울,7271858692,중학교,975,914,919,918,905,848,754,745,734,739,679,690,691,649,586,20887.0,20586.0,19672.0,18585.0,17125.0,16814.0,16736.0,16655.0,17062.0,17673.0,17814.0,17439.0,17213.0,17348.0,16852.0,16523.0,16460.0,16692.0,16068.0,14516.0,12901.0,11446.0,10192.0,9216.0,8506.0
대명중학교,1970-06-05,본교,대구광역시 남구 대명동 519,대구광역시 남구 앞산순환로 477,대구광역시교육청,35.83308922,대구광역시 남구,128.5767451,대구,7649269640,중학교,706,588,503,457,425,371,326,259,213,209,199,205,236,262,279,7052.0,6480.0,6015.0,5473.0,4923.0,4538.0,4233.0,3975.0,3995.0,4045.0,3877.0,3590.0,3398.0,3431.0,3399.0,3286.0,3116.0,2903.0,2601.0,2199.0,1889.0,1666.0,1504.0,1338.0,1307.0
인천경연중학교,2020-03-01,본교,인천광역시 서구 청라동 84-2,인천광역시 서구 차오름로 64,인천광역시교육청,37.53849651,인천광역시 서구,126.6262363,인천,7728144288,중학교,0,0,0,0,0,0,0,0,0,0,0,177,235,303,358,15753.0,15428.0,14758.0,13624.0,12117.0,11063.0,10803.0,10944.0,11809.0,12265.0,12114.0,11855.0,12093.0,13601.0,14678.0,15445.0,15302.0,14897.0,13635.0,12732.0,12099.0,11803.0,11029.0,10441.0,10499.0
인평중학교,2009-03-01,본교,경상북도 칠곡군 북삼읍 인평리 518-2,경상북도 칠곡군 북삼읍 북삼로 223,경상북도교육청,36.06259352,칠곡군,128.335692,경북,5084124565,중학교,167,354,507,492,467,492,452,415,354,372,352,361,364,369,364,4825.0,5028.0,5494.0,5523.0,5225.0,4704.0,4492.0,4268.0,4398.0,4598.0,4645.0,4826.0,5139.0,5121.0,4601.0,3959.0,3894.0,3931.0,3707.0,3222.0,2577.0,2002.0,1569.0,1314.0,1186.0
광양마동중학교,2015-09-22,본교,전라남도 광양시 마동 1020,전라남도 광양시 느지매기길 7,전라남도교육청,34.954267,광양시,127.6878322,전남,6088574290,중학교,0,0,0,0,0,0,206,409,601,584,597,614,618,585,573,7730.0,7359.0,6900.0,6128.0,5188.0,4633.0,4435.0,4435.0,4656.0,4772.0,4868.0,4988.0,5177.0,5510.0,5478.0,5386.0,5132.0,4818.0,4427.0,3918.0,3582.0,3306.0,3027.0,2776.0,2579.0
동산중학교,1970-05-06,본교,강원특별자치도 춘천시 동산면 조양리 703-1 번지,강원특별자치도 춘천시 동산면 영서로 461-22,강원특별자치도교육청,37.75022835,춘천시,127.7909631,강원,1199533820,중학교,33,32,23,21,29,24,16,13,13,13,11,9,6,12,18,9626.0,9583.0,9189.0,8636.0,7781.0,7202.0,6817.0,6493.0,6559.0,6614.0,6648.0,6609.0,6793.0,6985.0,6845.0,6483.0,6235.0,6092.0,5792.0,5440.0,5122.0,4972.0,4754.0,4588.0,4326.0
유곡중학교,2003-03-01,본교,울산광역시 중구 태화동 196,울산광역시 중구 유곡로 85,울산광역시교육청,35.55882497,울산광역시 중구,129.299591,울산,2175754904,중학교,949,899,873,874,865,884,879,811,764,720,697,699,694,680,674,11519.0,9816.0,8844.0,8052.0,7371.0,6742.0,6307.0,5947.0,6038.0,6153.0,6037.0,5714.0,5558.0,5686.0,5652.0,5732.0,5822.0,6106.0,5989.0,5361.0,4424.0,3560.0,3011.0,2577.0,2374.0
이서중학교,1952-02-03,본교,경상북도 청도군 이서면 서원리 331-3,경상북도 청도군 이서면 학산1길 22,경상북도교육청,35.66249467,청도군,128.6684614,경북,4450908124,중학교,164,155,127,124,120,139,132,112,114,120,116,129,148,135,125,1196.0,1157.0,1076.0,973.0,855.0,761.0,689.0,670.0,700.0,687.0,660.0,587.0,609.0,602.0,567.0,501.0,483.0,484.0,481.0,452.0,423.0,392.0,339.0,314.0,299.0
풍암중학교,2000-03-08,본교,광주광역시 서구 풍암동 1098,광주광역시 서구 풍암순환로 51,광주광역시교육청,35.12235904,광주광역시 서구,126.8781232,광주,2442654550,중학교,880,875,852,830,802,766,750,696,619,609,566,556,548,513,470,10145.0,11391.0,12168.0,13199.0,12466.0,11516.0,10699.0,9812.0,9431.0,9292.0,8865.0,8373.0,8120.0,8376.0,8268.0,7994.0,7291.0,6890.0,6449.0,5965.0,5349.0,4674.0,4227.0,3875.0,3566.0
대흥중학교,1995-03-01,본교,경기도 시흥시 대야동 377-70,경기도 시흥시 서해안로 1587,경기도교육청,37.44744016,시흥시,126.784073,경기,6215363919,중학교,1349,1074,913,827,705,630,531,488,446,397,370,377,367,322,319,13894.0,15905.0,16655.0,16517.0,15601.0,15076.0,14592.0,14335.0,14354.0,14425.0,14012.0,13567.0,13240.0,12918.0,11947.0,10906.0,10142.0,9678.0,9227.0,9066.0,9306.0,9705.0,9861.0,9748.0,9400.0
창원대산중학교,1949-04-26,본교,경상남도 창원시 의창구 대산면 제동리 280,경상남도 창원시 의창구 대산면 진산대로 380,경상남도교육청,35.33411769,의창구,128.710433,경남,1320294916,중학교,235,237,229,225,212,209,191,168,139,121,112,106,98,95,103,0.0,0.0,0.0,0.0,0.0,0.0,0.0,0.0,0.0,0.0,0.0,0.0,0.0,6948.0,6927.0,6958.0,6879.0,6650.0,6195.0,5517.0,5108.0,4812.0,4359.0,3793.0,3229.0
안민중학교,2018-05-01,본교,경상남도 창원시 성산구 안민동 663-4,경상남도 창원시 성산구 안민로160번길 11,경상남도교육청,35.18365416,성산구,128.6933757,경남,6140341460,중학교,585,516,452,404,372,334,272,242,210,215,200,182,174,166,168,0.0,0.0,0.0,0.0,0.0,0.0,0.0,0.0,0.0,0.0,0.0,0.0,0.0,8504.0,8294.0,7798.0,7070.0,6414.0,5674.0,5142.0,4627.0,4147.0,3819.0,3680.0,3770.0
인천청라중학교,2011-03-01,본교,인천광역시 서구 청라동 125-4,인천광역시 서구 청라라임로 112,인천광역시교육청,37.53783941,인천광역시 서구,126.653874,인천,6841955304,중학교,0,0,376,888,1110,1179,1114,1086,1075,1192,1230,1217,1167,1097,1058,15753.0,15428.0,14758.0,13624.0,12117.0,11063.0,10803.0,10944.0,11809.0,12265.0,12114.0,11855.0,12093.0,13601.0,14678.0,15445.0,15302.0,14897.0,13635.0,12732.0,12099.0,11803.0,11029.0,10441.0,10499.0
철산중학교,1983-01-02,본교,경기도 광명시 철산동 558,경기도 광명시 철망산로 71,경기도교육청,37.47030832,광명시,126.8753237,경기,1416275620,중학교,1245,1588,1728,1727,1639,1605,1578,1548,1542,1460,1395,1298,1347,1339,1293,17174.0,16495.0,15623.0,14464.0,13354.0,12680.0,11971.0,11087.0,10466.0,10283.0,9886.0,10342.0,11458.0,12683.0,12409.0,11334.0,10394.0,9656.0,8643.0,7402.0,6324.0,5617.0,5157.0,4861.0,4646.0
복주여자중학교,1981-12-08,본교,경상북도 안동시 당북동 333-1,경상북도 안동시 안기천로 58,경상북도교육청,36.56259417,안동시,128.7180369,경북,5853802680,중학교,770,710,684,663,656,627,628,572,540,484,467,477,472,460,456,5832.0,5675.0,5538.0,5159.0,4712.0,4357.0,4088.0,3905.0,4045.0,4204.0,4421.0,4496.0,4677.0,4839.0,4750.0,4464.0,4299.0,4132.0,3990.0,3462.0,3000.0,2541.0,2331.0,2124.0,1998.0
청양중학교,1931-08-17,본교,충청남도 청양군 청양읍 송방리 133-1,충청남도 청양군 청양읍 칠갑산로 179,충청남도교육청,36.45232466,청양군,126.7955599813,충남,6341496944,중학교,308,296,289,340,376,403,349,312,295,276,272,255,273,262,283,1220.0,1138.0,1077.0,997.0,884.0,791.0,724.0,687.0,659.0,659.0,629.0,608.0,584.0,593.0,595.0,573.0,546.0,478.0,426.0,366.0,335.0,306.0,286.0,258.0,230.0
복현중학교,1985-05-20,본교,대구광역시 북구 복현동 301-17,대구광역시 북구 동북로65길 28,대구광역시교육청,35.89394102,대구광역시 북구,128.6279506,대구,1950189173,중학교,631,538,513,464,449,417,371,302,525,415,348,311,297,319,347,17442.0,16896.0,16501.0,15788.0,15227.0,15524.0,15774.0,15333.0,15093.0,14769.0,14030.0,13068.0,12736.0,12967.0,12484.0,12009.0,11518.0,11295.0,10497.0,9382.0,8245.0,7421.0,6647.0,6171.0,5622.0
인천루원중학교,2023-03-01,본교,인천광역시 서구 가정동,인천광역시 서구 염곡로 517,인천광역시교육청,37.531308,인천광역시 서구,126.668519,인천,3253096342,중학교,0,0,0,0,0,0,0,0,0,0,0,0,0,0,388,15753.0,15428.0,14758.0,13624.0,12117.0,11063.0,10803.0,10944.0,11809.0,12265.0,12114.0,11855.0,12093.0,13601.0,14678.0,15445.0,15302.0,14897.0,13635.0,12732.0,12099.0,11803.0,11029.0,10441.0,10499.0
광주화정중학교,1979-09-01,본교,광주광역시 서구 화정동 647-7,광주광역시 서구 화운로 53,광주광역시교육청,35.14412529,광주광역시 서구,126.8823691,광주,1014938831,중학교,1143,1103,1052,991,883,819,721,684,693,657,648,661,642,624,630,10145.0,11391.0,12168.0,13199.0,12466.0,11516.0,10699.0,9812.0,9431.0,9292.0,8865.0,8373.0,8120.0,8376.0,8268.0,7994.0,7291.0,6890.0,6449.0,5965.0,5349.0,4674.0,4227.0,3875.0,3566.0
영월중학교,1946-08-19,본교,강원특별자치도 영월군 영월읍 영흥리 716-1 번지,강원특별자치도 영월군 영월읍 오무개길 51,강원특별자치도교육청,37.19059443,영월군,128.4711874,강원,9058377802,중학교,392,401,400,360,337,324,316,306,275,291,279,271,238,229,226,1587.0,1469.0,1372.0,1202.0,1050.0,990.0,922.0,872.0,812.0,777.0,755.0,707.0,695.0,664.0,613.0,551.0,520.0,501.0,471.0,427.0,385.0,366.0,335.0,309.0,287.0
모전중학교,2014-03-01,본교,부산광역시 기장군 정관읍 모전리 720,부산광역시 기장군 정관읍 정관1로 9,부산광역시교육청,35.33811873,부산광역시 기장군,129.162154,부산,4700412571,중학교,0,0,0,0,0,212,539,885,867,797,725,795,857,959,1008,2787.0,2602.0,2385.0,2261.0,2146.0,2121.0,2112.0,2030.0,1937.0,1880.0,1939.0,2396.0,2924.0,3671.0,4097.0,4856.0,5390.0,5847.0,5559.0,4964.0,4212.0,3720.0,3428.0,3255.0,2997.0
목동중학교,1981-05-20,본교,서울특별시 양천구 신정동 88-1,서울특별시 양천구 목동동로 172,서울특별시교육청,37.5209572,서울특별시 양천구,126.871463,서울,2927842557,중학교,2264,2141,2021,1976,1886,1753,1590,1484,1470,1464,1368,1375,1407,1403,1355,17207.0,16528.0,15710.0,14595.0,13508.0,12812.0,12349.0,12200.0,12530.0,12716.0,12269.0,11461.0,11078.0,11274.0,11143.0,10943.0,10600.0,10387.0,9736.0,8597.0,7485.0,6484.0,5924.0,5384.0,4958.0
중앙중학교,1908-06-20,본교,서울특별시 종로구 계동 1-23,서울특별시 종로구 창덕궁길 164,서울특별시교육청,37.58378822,서울특별시 종로구,126.9874726,서울,2829662442,중학교,474,487,466,434,401,354,314,268,226,202,184,165,167,193,242,6081.0,5852.0,5563.0,5075.0,4540.0,4153.0,3843.0,3578.0,3486.0,3519.0,3475.0,3378.0,3305.0,3310.0,3076.0,2878.0,2684.0,2657.0,2441.0,2179.0,2006.0,1846.0,1730.0,1521.0,1388.0
금천중학교,1951-11-29,본교,경상북도 청도군 금천면 동곡리 1035,경상북도 청도군 금천면 선암로 574-11,경상북도교육청,35.68807595,청도군,128.894764,경북,8828382670,중학교,91,90,100,93,86,66,54,41,33,30,33,29,28,29,24,1196.0,1157.0,1076.0,973.0,855.0,761.0,689.0,670.0,700.0,687.0,660.0,587.0,609.0,602.0,567.0,501.0,483.0,484.0,481.0,452.0,423.0,392.0,339.0,314.0,299.0
왕산중학교,1970-06-09,본교,강원특별자치도 강릉시 왕산면 도마리 325-9 번지,강원특별자치도 강릉시 왕산면 백두대간로 2005,강원특별자치도교육청,37.67297147,강릉시,128.8367696,강원,8106991827,중학교,11,9,12,18,19,15,13,12,11,13,12,11,11,8,11,8240.0,8366.0,8104.0,7633.0,6851.0,6411.0,6004.0,5628.0,5462.0,5306.0,5213.0,4935.0,4966.0,4948.0,4767.0,4394.0,4160.0,3936.0,3722.0,3356.0,3084.0,2950.0,2806.0,2735.0,2611.0
성동중학교,1972-06-03,본교,부산광역시 남구 문현동 791,부산광역시 남구 남동천로 38,부산광역시교육청,35.13993339,부산광역시 남구,129.0662635,부산,6162006735,중학교,606,623,782,780,733,719,676,567,463,420,392,410,443,432,419,9820.0,9485.0,9081.0,8522.0,7987.0,7620.0,7332.0,6858.0,6756.0,6840.0,6940.0,6978.0,7000.0,7000.0,6615.0,6287.0,5988.0,5655.0,5097.0,4452.0,3937.0,3496.0,3164.0,2793.0,2579.0
대진중학교,2006-03-01,본교,대구광역시 달서구 대곡동 1036-1,대구광역시 달서구 화암로73길 7,대구광역시교육청,35.80572575,대구광역시 달서구,128.5195259,대구,8168567299,중학교,1512,1492,1462,1423,1400,1346,1259,1127,1007,889,798,759,730,716,723,22781.0,24170.0,23767.0,22111.0,19929.0,18327.0,16817.0,15187.0,14741.0,14819.0,15123.0,15300.0,15713.0,16200.0,15893.0,15585.0,15171.0,14578.0,13259.0,11251.0,9674.0,8341.0,7531.0,6616.0,6246.0
용원중학교,2009-03-01,본교,경상남도 창원시 진해구 용원동 1231,경상남도 창원시 진해구 용원로77번길 16,경상남도교육청,35.09965505,진해구,128.8179932,경남,5894624829,중학교,189,379,568,586,674,760,809,810,788,767,727,730,699,670,633,5989.0,5939.0,5713.0,5501.0,5597.0,5867.0,5962.0,6021.0,6354.0,6882.0,7041.0,7127.0,7302.0,7617.0,7403.0,6881.0,6308.0,6013.0,5732.0,5262.0,4756.0,4243.0,3790.0,3347.0,3011.0
신용중학교,2014-05-01,본교,광주광역시 북구 신용동 672,광주광역시 북구 첨단연신로133번길 32,광주광역시교육청,35.2107845,광주광역시 북구,126.860961,광주,8687670230,중학교,0,0,0,0,0,194,472,625,668,672,689,771,832,806,760,22574.0,22278.0,21016.0,19085.0,16593.0,15078.0,13876.0,13092.0,13407.0,13841.0,13920.0,13307.0,12755.0,12333.0,11505.0,11158.0,11037.0,10985.0,10313.0,9268.0,8369.0,7554.0,7266.0,6956.0,6592.0
강원체육중학교,2005-03-01,본교,강원특별자치도 춘천시 송암동 산 1-1번지,강원특별자치도 춘천시 자라우새길 126,강원특별자치도교육청,37.85912229,춘천시,127.694804,강원,9244824051,중학교,79,84,82,89,87,88,97,83,95,84,86,93,85,84,91,9626.0,9583.0,9189.0,8636.0,7781.0,7202.0,6817.0,6493.0,6559.0,6614.0,6648.0,6609.0,6793.0,6985.0,6845.0,6483.0,6235.0,6092.0,5792.0,5440.0,5122.0,4972.0,4754.0,4588.0,4326.0
봉래중학교,1982-03-05,본교,강원특별자치도 영월군 영월읍 덕포리 374 번지,강원특별자치도 영월군 영월읍 중리1길 172-17,강원특별자치도교육청,37.18162818,영월군,128.4858655,강원,5211563289,중학교,105,117,134,159,147,132,102,71,55,42,39,48,51,58,52,1587.0,1469.0,1372.0,1202.0,1050.0,990.0,922.0,872.0,812.0,777.0,755.0,707.0,695.0,664.0,613.0,551.0,520.0,501.0,471.0,427.0,385.0,366.0,335.0,309.0,287.0
봄내중학교,1934-04-10,본교,강원특별자치도 춘천시 효자동 214-4 번지,강원특별자치도 춘천시 공지로200번길 36,강원특별자치도교육청,37.86546754,춘천시,127.740764,강원,6034524023,중학교,906,953,948,846,779,743,713,696,603,579,501,491,495,494,471,9626.0,9583.0,9189.0,8636.0,7781.0,7202.0,6817.0,6493.0,6559.0,6614.0,6648.0,6609.0,6793.0,6985.0,6845.0,6483.0,6235.0,6092.0,5792.0,5440.0,5122.0,4972.0,4754.0,4588.0,4326.0
대성중학교,1951-09-01,본교,충청북도 청주시 흥덕구 신봉동 171-9,충청북도 청주시 흥덕구 사운로 342,충청북도교육청,36.6580328,흥덕구,127.4691295,충북,8350298225,중학교,804,808,768,769,723,705,626,567,522,478,405,374,408,425,452,15866.0,16223.0,16204.0,15536.0,14338.0,13216.0,12550.0,12112.0,12364.0,12843.0,13256.0,13554.0,14155.0,14919.0,14796.0,12449.0,9951.0,7777.0,7360.0,6675.0,6103.0,5709.0,5495.0,5281.0,5230.0
송운중학교,1996-03-01,본교,경기도 시흥시 정왕동 1875-4,경기도 시흥시 옥구천동로 433-11,경기도교육청,37.35941067,시흥시,126.731408,경기,6387948513,중학교,1112,1046,1032,1037,1022,974,863,756,675,642,638,629,629,590,491,13894.0,15905.0,16655.0,16517.0,15601.0,15076.0,14592.0,14335.0,14354.0,14425.0,14012.0,13567.0,13240.0,12918.0,11947.0,10906.0,10142.0,9678.0,9227.0,9066.0,9306.0,9705.0,9861.0,9748.0,9400.0
별빛중학교,2016-03-01,본교,경상북도 영천시 고경면 해선리 240-3,경상북도 영천시 고경면 월천길 1-27,경상북도교육청,36.00232912,영천시,129.0432455,경북,9953181505,중학교,0,0,0,0,0,0,0,97,106,120,120,115,109,102,97,4137.0,4082.0,3814.0,3352.0,2976.0,2630.0,2453.0,2246.0,2218.0,2291.0,2295.0,2346.0,2364.0,2431.0,2315.0,2232.0,2153.0,2073.0,1938.0,1714.0,1737.0,1723.0,1763.0,1641.0,1536.0
옥동중학교,1973-10-08,본교,강원특별자치도 영월군 김삿갓면 옥동리 402 번지,강원특별자치도 영월군 김삿갓면 영월동로 1664,강원특별자치도교육청,37.128166,영월군,128.5706668,강원,8399952888,중학교,29,35,29,22,19,25,26,18,19,18,26,19,18,14,13,1587.0,1469.0,1372.0,1202.0,1050.0,990.0,922.0,872.0,812.0,777.0,755.0,707.0,695.0,664.0,613.0,551.0,520.0,501.0,471.0,427.0,385.0,366.0,335.0,309.0,287.0
양주중학교,1970-03-16,본교,경상남도 양산시 상북면 석계리 51,경상남도 양산시 상북면 양주마을2길 18,경상남도교육청,35.41517665,양산시,129.0677568,경남,6033393204,중학교,534,466,402,376,349,290,254,220,220,200,212,194,191,174,168,9297.0,9219.0,8992.0,8499.0,7925.0,7491.0,7194.0,7105.0,7352.0,7733.0,7727.0,7763.0,8105.0,8601.0,8566.0,8567.0,8711.0,8941.0,8985.0,8939.0,8716.0,8081.0,7144.0,6208.0,5520.0
서천중학교,2011-06-07,본교,경기도 용인시 기흥구 서천동 796,경기도 용인시 기흥구 서천동로 7,경기도교육청,37.24001911,기흥구,127.0758949,경기,6113008677,중학교,0,0,109,220,381,406,407,444,497,593,576,614,682,740,784,0.0,0.0,0.0,0.0,0.0,0.0,0.0,0.0,10806.0,12028.0,12531.0,12608.0,13075.0,13705.0,13292.0,13003.0,12634.0,12298.0,11212.0,9747.0,8635.0,8090.0,7752.0,7426.0,6806.0
상명대학교사범대학부속여자중학교,1966-11-17,본교,서울특별시 종로구 홍지동 7-1,서울특별시 종로구 홍지문2길 20,서울특별시교육청,37.60410891,서울특별시 종로구,126.9551595,서울,9913233757,중학교,464,438,456,445,435,422,356,295,269,272,284,280,279,264,259,6081.0,5852.0,5563.0,5075.0,4540.0,4153.0,3843.0,3578.0,3486.0,3519.0,3475.0,3378.0,3305.0,3310.0,3076.0,2878.0,2684.0,2657.0,2441.0,2179.0,2006.0,1846.0,1730.0,1521.0,1388.0
동촌중학교,1979-01-31,본교,대구광역시 동구 방촌동 1047-4,대구광역시 동구 동촌로 176,대구광역시교육청,35.88202794,대구광역시 동구,128.6589293,대구,8643289327,중학교,1061,961,888,805,792,735,668,575,496,429,364,329,315,296,283,13641.0,13140.0,12554.0,11377.0,10119.0,9646.0,9491.0,9228.0,9138.0,8947.0,8678.0,8549.0,8756.0,9305.0,9180.0,9153.0,9029.0,8932.0,8329.0,7449.0,6644.0,5852.0,5280.0,4873.0,4696.0
가림중학교,1991-06-05,본교,경기도 광명시 하안동 261,경기도 광명시 오리로 616,경기도교육청,37.45764308,광명시,126.8796742,경기,7766368985,중학교,1135,1084,988,937,920,908,857,766,730,725,672,586,533,508,470,17174.0,16495.0,15623.0,14464.0,13354.0,12680.0,11971.0,11087.0,10466.0,10283.0,9886.0,10342.0,11458.0,12683.0,12409.0,11334.0,10394.0,9656.0,8643.0,7402.0,6324.0,5617.0,5157.0,4861.0,4646.0
궁내중학교,1994-02-28,본교,경기도 군포시 산본동 1149-5,경기도 군포시 수리산로 171,경기도교육청,37.36388636,군포시,126.9190776,경기,7358100295,중학교,1283,1250,1184,1138,1138,1070,996,916,865,825,833,822,813,761,754,14307.0,14271.0,13543.0,12392.0,11501.0,10912.0,10637.0,10300.0,10339.0,10558.0,10285.0,10171.0,10334.0,10774.0,10442.0,10070.0,9605.0,9333.0,8344.0,7234.0,6332.0,5748.0,5196.0,4741.0,4457.0
아산테크노중학교,2017-05-30,본교,충청남도 아산시 둔포면 석곡리 1782,충청남도 아산시 둔포면 아산밸리북로 32,충청남도교육청,36.926486,아산시,127.0518272,충남,8368987858,중학교,0,0,0,0,0,0,0,0,95,191,241,290,348,433,476,8439.0,8597.0,8252.0,7789.0,7289.0,7077.0,6940.0,6951.0,7521.0,8538.0,9642.0,10549.0,11236.0,11742.0,11577.0,11293.0,11046.0,10822.0,10232.0,9165.0,8086.0,7024.0,6141.0,5630.0,5591.0
울산중앙중학교,1981-09-27,본교,울산광역시 남구 신정동 859-3,울산광역시 남구 중앙로63번길 5,울산광역시교육청,35.5260243,울산광역시 남구,129.3156805,울산,9664191186,중학교,1350,1323,1264,1203,1159,1161,1104,966,894,825,790,798,822,805,786,14805.0,14527.0,13779.0,12730.0,11409.0,10576.0,10019.0,9512.0,9454.0,9362.0,9323.0,9206.0,9362.0,9671.0,9629.0,9638.0,9472.0,9205.0,8425.0,7326.0,6346.0,5638.0,5220.0,4871.0,4539.0
수완하나중학교,2015-03-01,본교,광주광역시 광산구 수완동 973,광주광역시 광산구 수완로105번길 47,광주광역시교육청,35.19420808,광주광역시 광산구,126.8275242,광주,3789422273,중학교,0,0,0,0,0,0,288,595,910,913,938,920,930,917,932,15628.0,15242.0,14583.0,13727.0,13077.0,12820.0,12623.0,12335.0,12442.0,12482.0,12303.0,12505.0,13148.0,14066.0,13853.0,13413.0,12680.0,12287.0,11303.0,10150.0,8845.0,7911.0,7444.0,7121.0,6720.0
경운중학교,2001-01-04,본교,경상남도 김해시 내동 1115-3,경상남도 김해시 우암로 62,경상남도교육청,35.23612594,김해시,128.8618342,경남,8228185296,중학교,1293,1226,1184,1185,1138,1064,1015,948,844,787,755,763,746,700,706,16101.0,16106.0,15544.0,14960.0,14827.0,15191.0,15569.0,15515.0,16058.0,16405.0,16465.0,16250.0,16347.0,16709.0,16162.0,15976.0,15529.0,15169.0,13877.0,12128.0,10859.0,9859.0,9228.0,8334.0,7852.0
성서중학교,1969-11-07,본교,대구광역시 달서구 용산동 948,대구광역시 달서구 용산서로 63,대구광역시교육청,35.8558081,대구광역시 달서구,128.5266049,대구,1253875911,중학교,1329,1316,1257,1224,1222,1133,1003,923,911,852,766,698,689,717,721,22781.0,24170.0,23767.0,22111.0,19929.0,18327.0,16817.0,15187.0,14741.0,14819.0,15123.0,15300.0,15713.0,16200.0,15893.0,15585.0,15171.0,14578.0,13259.0,11251.0,9674.0,8341.0,7531.0,6616.0,6246.0
석천중학교,1969-10-04,본교,강원특별자치도 양구군 양구읍 정림리 230-1 번지,강원특별자치도 양구군 양구읍 박수근로 327,강원특별자치도교육청,38.1009114,양구군,127.9808197,강원,7406552255,중학교,237,220,247,238,245,246,237,210,235,216,213,187,206,203,203,996.0,1007.0,936.0,894.0,796.0,788.0,740.0,697.0,656.0,634.0,602.0,586.0,613.0,656.0,645.0,629.0,630.0,644.0,637.0,573.0,536.0,494.0,491.0,468.0,437.0
기장중학교,1954-07-22,본교,부산광역시 기장군 기장읍 대라리 40,부산광역시 기장군 기장읍 읍내로 120,부산광역시교육청,35.24488187,부산광역시 기장군,129.2183149,부산,8275209784,중학교,947,940,930,936,917,828,781,694,650,603,564,559,486,471,467,2787.0,2602.0,2385.0,2261.0,2146.0,2121.0,2112.0,2030.0,1937.0,1880.0,1939.0,2396.0,2924.0,3671.0,4097.0,4856.0,5390.0,5847.0,5559.0,4964.0,4212.0,3720.0,3428.0,3255.0,2997.0
운호중학교,1968-03-06,본교,충청북도 청주시 서원구 모충동 132-13,충청북도 청주시 서원구 무심서로 375,충청북도교육청,36.62505317,서원구,127.4851868,충북,5637985169,중학교,691,661,636,577,570,512,452,431,406,336,282,277,321,349,368,0.0,0.0,0.0,0.0,0.0,0.0,0.0,0.0,0.0,0.0,0.0,0.0,0.0,0.0,0.0,0.0,0.0,6129.0,5493.0,4762.0,4005.0,3314.0,2783.0,2599.0,2552.0
만리포중학교,1968-03-22,본교,충청남도 태안군 소원면 신덕리 631-2,충청남도 태안군 소원면 소근로 63-12,충청남도교육청,36.765521,태안군,126.1939312,충남,8915485799,중학교,87,94,81,77,75,69,55,45,31,29,32,30,30,31,25,2051.0,2070.0,2062.0,1928.0,1679.0,1489.0,1367.0,1361.0,1376.0,1388.0,1360.0,1284.0,1267.0,1254.0,1230.0,1137.0,1050.0,1023.0,964.0,892.0,757.0,703.0,610.0,562.0,478.0
공산중학교,1954-04-19,본교,대구광역시 동구 백안동 560-5,대구광역시 동구 팔공로197길 26,대구광역시교육청,35.95506586,대구광역시 동구,128.6906838,대구,4447375655,중학교,226,222,222,218,214,221,215,214,209,200,194,199,208,212,217,13641.0,13140.0,12554.0,11377.0,10119.0,9646.0,9491.0,9228.0,9138.0,8947.0,8678.0,8549.0,8756.0,9305.0,9180.0,9153.0,9029.0,8932.0,8329.0,7449.0,6644.0,5852.0,5280.0,4873.0,4696.0
송례중학교,2014-05-01,본교,서울특별시 송파구 장지동 393,서울특별시 송파구 위례순환로 429,서울특별시교육청,37.47783301,서울특별시 송파구,127.139741,서울,3434769868,중학교,0,0,0,0,0,285,358,428,712,848,943,1035,1144,1328,1355,26843.0,26349.0,24846.0,22942.0,20417.0,18763.0,17405.0,16430.0,16624.0,17342.0,18313.0,19108.0,19687.0,20183.0,19396.0,18823.0,17863.0,17400.0,16375.0,15043.0,13967.0,12782.0,11684.0,10544.0,9721.0
관천중학교,1994-05-06,본교,대구광역시 북구 태전동 999-1,대구광역시 북구 구암로22길 7,대구광역시교육청,35.93116386,대구광역시 북구,128.5526133,대구,5767484903,중학교,1288,1169,1083,1039,956,879,779,704,601,540,506,505,489,433,398,17442.0,16896.0,16501.0,15788.0,15227.0,15524.0,15774.0,15333.0,15093.0,14769.0,14030.0,13068.0,12736.0,12967.0,12484.0,12009.0,11518.0,11295.0,10497.0,9382.0,8245.0,7421.0,6647.0,6171.0,5622.0
송산중학교,1981-01-19,본교,충청남도 당진시 송산면 도문리 169-1,충청남도 당진시 송산면 도문로 48,충청남도교육청,36.934811,당진시,126.6859161,충남,5217536032,중학교,99,88,66,69,76,106,128,140,155,169,168,185,193,218,219,4825.0,4775.0,4524.0,4036.0,3516.0,3191.0,3109.0,3159.0,3465.0,3846.0,4095.0,4064.0,3970.0,4439.0,4981.0,5554.0,5666.0,5510.0,5247.0,4682.0,4212.0,3685.0,3258.0,2899.0,2658.0
시화중학교,2006-03-01,본교,경기도 시흥시 정왕동 1552,경기도 시흥시 큰솔로52번길 23,경기도교육청,37.34098555,시흥시,126.7561914,경기,8645509123,중학교,722,704,655,648,566,531,511,489,430,357,305,272,285,266,278,13894.0,15905.0,16655.0,16517.0,15601.0,15076.0,14592.0,14335.0,14354.0,14425.0,14012.0,13567.0,13240.0,12918.0,11947.0,10906.0,10142.0,9678.0,9227.0,9066.0,9306.0,9705.0,9861.0,9748.0,9400.0
관동중학교,2004-03-01,본교,경상남도 김해시 관동동 422-1,경상남도 김해시 덕정로 77,경상남도교육청,35.17976521,김해시,128.7926333,경남,9691179037,중학교,1234,1222,1095,938,986,1057,1008,946,843,733,765,803,805,680,611,16101.0,16106.0,15544.0,14960.0,14827.0,15191.0,15569.0,15515.0,16058.0,16405.0,16465.0,16250.0,16347.0,16709.0,16162.0,15976.0,15529.0,15169.0,13877.0,12128.0,10859.0,9859.0,9228.0,8334.0,7852.0
불로중학교,1990-12-08,본교,대구광역시 동구 불로동 1010,대구광역시 동구 방천로5길 8,대구광역시교육청,35.89830061,대구광역시 동구,128.6344118,대구,1760185778,중학교,654,594,548,478,458,445,447,438,426,409,357,358,338,341,298,13641.0,13140.0,12554.0,11377.0,10119.0,9646.0,9491.0,9228.0,9138.0,8947.0,8678.0,8549.0,8756.0,9305.0,9180.0,9153.0,9029.0,8932.0,8329.0,7449.0,6644.0,5852.0,5280.0,4873.0,4696.0
오륜중학교,1989-04-18,본교,서울특별시 송파구 방이동 89-7,서울특별시 송파구 양재대로 1242,서울특별시교육청,37.51632395,서울특별시 송파구,127.1389238,서울,1757876932,중학교,1159,1061,956,885,871,843,754,666,557,548,523,555,544,523,475,26843.0,26349.0,24846.0,22942.0,20417.0,18763.0,17405.0,16430.0,16624.0,17342.0,18313.0,19108.0,19687.0,20183.0,19396.0,18823.0,17863.0,17400.0,16375.0,15043.0,13967.0,12782.0,11684.0,10544.0,9721.0
신탄진중학교,1964-11-14,본교,대전광역시 대덕구 석봉동 311-1,대전광역시 대덕구 석봉로 15,대전광역시교육청,36.44731214,대전광역시 대덕구,127.4234779,대전,4825738251,중학교,534,493,440,427,481,487,481,446,466,471,463,463,460,444,437,10703.0,10966.0,10863.0,10440.0,9164.0,8353.0,7690.0,7015.0,6603.0,6327.0,6064.0,5758.0,5592.0,5620.0,5489.0,5346.0,4998.0,4573.0,4005.0,3420.0,2870.0,2453.0,2265.0,2291.0,2339.0
정신여자중학교,1887-10-20,본교,서울특별시 송파구 잠실동 50-4,서울특별시 송파구 올림픽로4길 16,서울특별시교육청,37.50945384,서울특별시 송파구,127.0738473,서울,2131379365,중학교,1381,1462,1455,1356,1299,1184,1071,958,940,962,948,944,931,929,940,26843.0,26349.0,24846.0,22942.0,20417.0,18763.0,17405.0,16430.0,16624.0,17342.0,18313.0,19108.0,19687.0,20183.0,19396.0,18823.0,17863.0,17400.0,16375.0,15043.0,13967.0,12782.0,11684.0,10544.0,9721.0
덕명여자중학교,1953-07-03,본교,부산광역시 부산진구 전포동 487,부산광역시 부산진구 봉수로 13,부산광역시교육청,35.15108044,부산광역시 부산진구,129.0704519,부산,6644510924,중학교,632,551,523,483,474,453,388,354,324,299,274,306,324,324,317,13620.0,13383.0,12909.0,12127.0,11046.0,10309.0,9791.0,9536.0,9820.0,10042.0,10008.0,9744.0,9733.0,10033.0,9833.0,9572.0,9126.0,8748.0,8009.0,6998.0,6001.0,5181.0,4727.0,4530.0,4677.0
남산중학교,1991-01-14,본교,부산광역시 금정구 남산동 31-11,부산광역시 금정구 금단로 114,부산광역시교육청,35.25981702,부산광역시 금정구,129.093651,부산,9808917284,중학교,1315,1152,1051,975,898,844,738,670,573,535,475,474,485,492,460,9886.0,9376.0,8637.0,7773.0,6823.0,6143.0,5611.0,5083.0,5000.0,4973.0,4867.0,4677.0,4706.0,4975.0,4891.0,4739.0,4557.0,4284.0,4019.0,3559.0,3284.0,2862.0,2531.0,2194.0,2042.0
영신중학교,1946-10-17,본교,대구광역시 동구 봉무동 524,대구광역시 동구 팔공로50길 32,대구광역시교육청,35.92000422,대구광역시 동구,128.646424,대구,7141561806,중학교,918,931,885,866,900,907,845,752,722,695,664,633,631,656,629,13641.0,13140.0,12554.0,11377.0,10119.0,9646.0,9491.0,9228.0,9138.0,8947.0,8678.0,8549.0,8756.0,9305.0,9180.0,9153.0,9029.0,8932.0,8329.0,7449.0,6644.0,5852.0,5280.0,4873.0,4696.0
김해중학교,1951-09-01,본교,경상남도 김해시 부원동 39,경상남도 김해시 호계로 456,경상남도교육청,35.23110531,김해시,128.8861356,경남,9186595976,중학교,997,899,772,660,608,508,388,257,236,218,184,178,170,169,132,16101.0,16106.0,15544.0,14960.0,14827.0,15191.0,15569.0,15515.0,16058.0,16405.0,16465.0,16250.0,16347.0,16709.0,16162.0,15976.0,15529.0,15169.0,13877.0,12128.0,10859.0,9859.0,9228.0,8334.0,7852.0
신명여자중학교,1907-10-15,본교,대구광역시 수성구 수성동1가 96-16,대구광역시 수성구 신천동로 364,대구광역시교육청,35.85731247,대구광역시 수성구,128.6091788,대구,8362984538,중학교,1031,1042,1024,1070,1051,1004,898,832,812,788,746,769,823,805,790,16005.0,15151.0,14210.0,12889.0,11398.0,10129.0,9445.0,8813.0,8941.0,9150.0,9177.0,8735.0,8526.0,8663.0,8500.0,8404.0,8018.0,7784.0,6980.0,6091.0,5259.0,4624.0,4300.0,4145.0,3969.0
계촌중학교,1969-03-12,본교,강원특별자치도 평창군 방림면 계촌리 1372 번지,강원특별자치도 평창군 방림면 계촌길 139,강원특별자치도교육청,37.45278719,평창군,128.3088135,강원,4182280063,중학교,17,20,20,21,30,30,35,27,31,22,20,20,14,15,12,1641.0,1599.0,1426.0,1321.0,1138.0,1080.0,970.0,925.0,901.0,916.0,883.0,837.0,760.0,763.0,733.0,706.0,655.0,596.0,579.0,513.0,471.0,395.0,359.0,311.0,294.0
성안중학교,2001-05-06,본교,울산광역시 중구 성안동 519-8,울산광역시 중구 성안2길 30,울산광역시교육청,35.57276141,울산광역시 중구,129.3178978,울산,3890333414,중학교,1115,1070,1057,1059,982,939,843,814,762,736,677,713,766,754,705,11519.0,9816.0,8844.0,8052.0,7371.0,6742.0,6307.0,5947.0,6038.0,6153.0,6037.0,5714.0,5558.0,5686.0,5652.0,5732.0,5822.0,6106.0,5989.0,5361.0,4424.0,3560.0,3011.0,2577.0,2374.0
다송중학교,1993-02-20,본교,부산광역시 사하구 다대동 95,부산광역시 사하구 다송로 55,부산광역시교육청,35.06434989,부산광역시 사하구,128.9847862,부산,4880668818,중학교,798,795,765,759,730,646,574,486,436,399,384,378,382,381,378,15158.0,14376.0,13255.0,11931.0,10580.0,9871.0,9233.0,8970.0,8864.0,9125.0,9171.0,9136.0,9257.0,9511.0,9309.0,8794.0,8271.0,7818.0,7159.0,6291.0,5419.0,4681.0,4006.0,3652.0,3401.0
군산대성중학교,1966-03-11,본교,전북특별자치도 군산시 임피면 읍내리 535-4,전북특별자치도 군산시 임피면 임피향교길 44-6,전북특별자치도교육청,35.98863023,군산시,126.8486974,전북,7990947663,중학교,72,77,76,58,48,37,29,22,24,26,33,43,38,19,17,11733.0,11497.0,10856.0,9893.0,8770.0,7971.0,7485.0,7140.0,7117.0,7161.0,7300.0,7336.0,7662.0,7966.0,8007.0,7842.0,7532.0,7029.0,6343.0,5432.0,4685.0,4182.0,3787.0,3550.0,3240.0
원촌중학교,1983-04-26,본교,서울특별시 서초구 반포동 22,서울특별시 서초구 사평대로45길 10,서울특별시교육청,37.5063251,서울특별시 서초구,127.0146997,서울,7985320389,중학교,378,819,1152,1186,1149,1107,1045,1009,993,938,974,1024,1169,1224,1175,13894.0,13849.0,12910.0,12167.0,11066.0,10868.0,10666.0,10760.0,10969.0,11412.0,11503.0,11995.0,12339.0,13032.0,12710.0,12655.0,12294.0,11842.0,10746.0,9587.0,8470.0,7669.0,6913.0,6265.0,5714.0
신광중학교,1981-03-06,본교,광주광역시 북구 두암동 576-5,광주광역시 북구 면앙로165번길 80,광주광역시교육청,35.17953334,광주광역시 북구,126.9321202,광주,3661070525,중학교,638,622,528,499,467,428,384,301,272,257,250,244,254,243,236,22574.0,22278.0,21016.0,19085.0,16593.0,15078.0,13876.0,13092.0,13407.0,13841.0,13920.0,13307.0,12755.0,12333.0,11505.0,11158.0,11037.0,10985.0,10313.0,9268.0,8369.0,7554.0,7266.0,6956.0,6592.0
남성중학교,1983-04-29,본교,서울특별시 동작구 사당동 304-45,서울특별시 동작구 남부순환로269길 166,서울특별시교육청,37.47900822,서울특별시 동작구,126.972489,서울,1889562666,중학교,746,682,636,607,577,512,468,423,414,404,373,336,333,304,281,19083.0,18015.0,16747.0,15140.0,13721.0,13186.0,13043.0,12925.0,12709.0,12605.0,12233.0,11719.0,11512.0,11566.0,11432.0,11360.0,11120.0,10592.0,9641.0,8415.0,7458.0,6688.0,6102.0,5571.0,5222.0
대안여자중학교,1986-03-01,본교,경기도 안양시 동안구 호계동 1233,경기도 안양시 동안구 흥안대로223번길 46,경기도교육청,37.3771591,동안구,126.9651002,경기,2408375918,중학교,831,840,819,781,762,692,659,601,585,581,573,636,632,636,571,14486.0,14303.0,13672.0,12477.0,11340.0,11300.0,11425.0,11368.0,11255.0,11173.0,10790.0,10455.0,10243.0,10281.0,9977.0,9772.0,9635.0,9275.0,8479.0,7591.0,6977.0,6451.0,6053.0,5901.0,5779.0
대전하기중학교,2006-03-01,본교,대전광역시 유성구 하기동 520,대전광역시 유성구 송림로48번길 6-30,대전광역시교육청,36.38588907,대전광역시 유성구,127.3222049,대전,5986187934,중학교,438,475,541,550,580,550,475,459,470,481,473,496,514,511,480,8280.0,7906.0,7532.0,7388.0,7369.0,7446.0,7495.0,7969.0,9040.0,9804.0,9816.0,9510.0,9766.0,10455.0,10718.0,10828.0,10925.0,11108.0,10842.0,9898.0,8833.0,7790.0,7246.0,7133.0,7181.0
남천중학교,1984-12-29,본교,부산광역시 남구 대연동 455-12,부산광역시 남구 황령대로492번길 71,부산광역시교육청,35.13660359,부산광역시 남구,129.1052341,부산,7029735147,중학교,1227,1194,1190,1139,1138,1098,1079,1001,926,865,796,826,870,873,858,9820.0,9485.0,9081.0,8522.0,7987.0,7620.0,7332.0,6858.0,6756.0,6840.0,6940.0,6978.0,7000.0,7000.0,6615.0,6287.0,5988.0,5655.0,5097.0,4452.0,3937.0,3496.0,3164.0,2793.0,2579.0
문화중학교,1984-03-08,본교,광주광역시 북구 우산동 118-4,광주광역시 북구 면앙로 111,광주광역시교육청,35.17846694,광주광역시 북구,126.9239162,광주,5488568425,중학교,650,628,586,534,504,454,412,340,300,272,203,201,189,177,208,22574.0,22278.0,21016.0,19085.0,16593.0,15078.0,13876.0,13092.0,13407.0,13841.0,13920.0,13307.0,12755.0,12333.0,11505.0,11158.0,11037.0,10985.0,10313.0,9268.0,8369.0,7554.0,7266.0,6956.0,6592.0
율하중학교,2010-03-01,본교,경상남도 김해시 율하동 1293,경상남도 김해시 율하1로 39,경상남도교육청,35.17508098,김해시,128.808001,경남,1819353163,중학교,0,457,772,1186,1171,1303,1304,1240,1176,1057,1094,1114,1132,1143,1133,16101.0,16106.0,15544.0,14960.0,14827.0,15191.0,15569.0,15515.0,16058.0,16405.0,16465.0,16250.0,16347.0,16709.0,16162.0,15976.0,15529.0,15169.0,13877.0,12128.0,10859.0,9859.0,9228.0,8334.0,7852.0
영산중학교,1951-06-25,본교,경상남도 창녕군 영산면 서리 253,경상남도 창녕군 영산면 영산계성로 87,경상남도교육청,35.4601691,창녕군,128.5242737,경남,5783956885,중학교,362,322,296,286,282,265,260,234,191,159,145,151,163,161,163,2051.0,1994.0,1903.0,1672.0,1346.0,1163.0,1044.0,1086.0,1090.0,1104.0,1076.0,1029.0,1051.0,1111.0,1157.0,1156.0,1144.0,1143.0,1148.0,1108.0,1035.0,892.0,773.0,607.0,503.0
산이중학교,1966-12-13,본교,전라남도 해남군 산이면 초송리 527-5,전라남도 해남군 산이면 비석길 98-2,전라남도교육청,34.64545878,해남군,126.4481956,전남,1423066973,중학교,87,93,89,92,81,68,53,55,54,45,36,38,39,40,48,3085.0,3141.0,2979.0,2660.0,2286.0,2020.0,1921.0,1871.0,1894.0,1878.0,1794.0,1736.0,1644.0,1946.0,2158.0,2475.0,2482.0,2460.0,2265.0,1959.0,1663.0,1418.0,1180.0,906.0,769.0
광남중학교,1982-10-02,본교,경기도 광명시 광명동 384-6,경기도 광명시 광명로 785,경기도교육청,37.47007475,광명시,126.8475588,경기,6256020843,중학교,1538,1426,1337,1391,1357,1309,1151,1043,1021,1005,949,918,908,893,843,17174.0,16495.0,15623.0,14464.0,13354.0,12680.0,11971.0,11087.0,10466.0,10283.0,9886.0,10342.0,11458.0,12683.0,12409.0,11334.0,10394.0,9656.0,8643.0,7402.0,6324.0,5617.0,5157.0,4861.0,4646.0
방산중학교,1991-05-06,본교,서울특별시 송파구 방이동 220,서울특별시 송파구 오금로29길 31,서울특별시교육청,37.50937287,서울특별시 송파구,127.1218756,서울,1430517613,중학교,1056,1050,966,899,825,746,665,561,506,488,465,442,449,430,440,26843.0,26349.0,24846.0,22942.0,20417.0,18763.0,17405.0,16430.0,16624.0,17342.0,18313.0,19108.0,19687.0,20183.0,19396.0,18823.0,17863.0,17400.0,16375.0,15043.0,13967.0,12782.0,11684.0,10544.0,9721.0
하동중앙중학교,1961-05-01,본교,경상남도 하동군 하동읍 읍내리 667,경상남도 하동군 하동읍 연화길 77,경상남도교육청,35.07664446,하동군,127.7495276,경남,8943804562,중학교,280,281,258,252,264,230,197,158,146,147,135,139,141,139,136,1783.0,1737.0,1624.0,1442.0,1237.0,1095.0,1029.0,980.0,983.0,986.0,958.0,914.0,877.0,892.0,788.0,729.0,677.0,692.0,656.0,592.0,549.0,497.0,448.0,356.0,310.0
세륜중학교,1992-04-22,본교,서울특별시 송파구 오금동 7-3,서울특별시 송파구 양재대로72길 41,서울특별시교육청,37.50893314,서울특별시 송파구,127.1312464,서울,8919121801,중학교,1050,978,860,820,780,706,613,563,518,469,466,470,461,390,349,26843.0,26349.0,24846.0,22942.0,20417.0,18763.0,17405.0,16430.0,16624.0,17342.0,18313.0,19108.0,19687.0,20183.0,19396.0,18823.0,17863.0,17400.0,16375.0,15043.0,13967.0,12782.0,11684.0,10544.0,9721.0
봉은중학교,1986-04-29,본교,서울특별시 강남구 삼성동 82-7,서울특별시 강남구 영동대로128길 59,서울특별시교육청,37.51897667,서울특별시 강남구,127.0623894,서울,5322846531,중학교,760,740,703,670,602,528,487,419,396,340,324,329,350,326,288,18180.0,18430.0,17340.0,15735.0,13885.0,12978.0,12490.0,12460.0,13165.0,13853.0,13867.0,13810.0,13985.0,14500.0,14215.0,14108.0,13800.0,13371.0,12173.0,10518.0,9145.0,8045.0,7309.0,6556.0,6496.0
금호중앙중학교,1960-04-15,본교,광주광역시 북구 운암동 140,광주광역시 북구 금호로 100,광주광역시교육청,35.1785969,광주광역시 북구,126.8855126,광주,5172569870,중학교,1097,1103,1076,1026,1009,956,835,741,656,635,612,640,637,655,659,22574.0,22278.0,21016.0,19085.0,16593.0,15078.0,13876.0,13092.0,13407.0,13841.0,13920.0,13307.0,12755.0,12333.0,11505.0,11158.0,11037.0,10985.0,10313.0,9268.0,8369.0,7554.0,7266.0,6956.0,6592.0
월산중학교,2001-11-05,본교,경상남도 김해시 부곡동 806-10,경상남도 김해시 월산로 104,경상남도교육청,35.20526183,김해시,128.8039417,경남,5831713080,중학교,1178,1152,1092,1079,1068,1076,1065,1026,978,923,899,891,886,893,890,16101.0,16106.0,15544.0,14960.0,14827.0,15191.0,15569.0,15515.0,16058.0,16405.0,16465.0,16250.0,16347.0,16709.0,16162.0,15976.0,15529.0,15169.0,13877.0,12128.0,10859.0,9859.0,9228.0,8334.0,7852.0
선유중학교,1985-05-04,본교,서울특별시 영등포구 양평동3가 82,서울특별시 영등포구 선유로 213,서울특별시교육청,37.53328647,서울특별시 영등포구,126.894329,서울,6074451386,중학교,735,726,737,696,677,634,580,523,488,468,444,420,397,373,356,17870.0,17678.0,16829.0,15724.0,14317.0,13730.0,13469.0,13398.0,13753.0,13875.0,13468.0,12860.0,12457.0,12388.0,11548.0,10978.0,10539.0,10373.0,9698.0,8785.0,8136.0,7627.0,7331.0,6960.0,6827.0
상장중학교,1984-05-15,본교,강원특별자치도 태백시 황지동 123 번지,강원특별자치도 태백시 태백로 1221,강원특별자치도교육청,37.15068611,태백시,128.9921217,강원,6975978314,중학교,325,340,338,314,319,318,296,246,233,233,224,218,207,201,202,1785.0,1744.0,1618.0,1551.0,1443.0,1420.0,1350.0,1332.0,1375.0,1422.0,1425.0,1401.0,1329.0,1296.0,1159.0,1093.0,974.0,880.0,786.0,714.0,646.0,565.0,468.0,421.0,351.0
미로중학교,1971-04-21,본교,강원특별자치도 삼척시 미로면 하거노리 449,강원특별자치도 삼척시 미로면 강원남부로 3907,강원특별자치도교육청,37.41041541,삼척시,129.1038915,강원,3184712886,중학교,38,33,41,34,31,21,26,18,15,14,16,11,13,13,20,2636.0,2718.0,2570.0,2311.0,1970.0,1814.0,1647.0,1560.0,1526.0,1496.0,1455.0,1410.0,1416.0,1473.0,1431.0,1376.0,1275.0,1220.0,1139.0,1059.0,1044.0,1065.0,1011.0,940.0,858.0
동래여자중학교,1895-10-15,본교,부산광역시 금정구 구서동 72-3,부산광역시 금정구 체육공원로 20,부산광역시교육청,35.24704234,부산광역시 금정구,129.0981972,부산,4612810015,중학교,1266,1163,1066,1026,993,911,807,713,637,597,567,545,539,517,494,9886.0,9376.0,8637.0,7773.0,6823.0,6143.0,5611.0,5083.0,5000.0,4973.0,4867.0,4677.0,4706.0,4975.0,4891.0,4739.0,4557.0,4284.0,4019.0,3559.0,3284.0,2862.0,2531.0,2194.0,2042.0
동아중학교,1945-11-01,본교,부산광역시 수영구 광안동 1222-23,부산광역시 수영구 호암로 55,부산광역시교육청,35.15678092,부산광역시 수영구,129.106984,부산,2134734809,중학교,982,915,839,739,686,663,586,548,532,543,491,478,465,502,512,5830.0,5538.0,5085.0,4569.0,4039.0,3772.0,3762.0,3801.0,3921.0,3937.0,3816.0,3691.0,3710.0,3900.0,3816.0,3708.0,3755.0,3838.0,3719.0,3300.0,2891.0,2596.0,2416.0,2339.0,2214.0
남서울중학교,1964-11-12,본교,서울특별시 관악구 신림동 1690-3,서울특별시 관악구 남부순환로172길 97,서울특별시교육청,37.48213625,서울특별시 관악구,126.9210371,서울,4937919497,중학교,1017,899,794,722,649,553,474,398,366,332,325,330,328,283,271,23336.0,22304.0,20827.0,19365.0,17706.0,17020.0,16622.0,16172.0,16209.0,16267.0,15845.0,14880.0,14303.0,14063.0,13465.0,12807.0,12171.0,11592.0,10452.0,9074.0,7758.0,6732.0,5857.0,5227.0,4811.0
거제장평중학교,2013-05-01,본교,경상남도 거제시 장평동 148,경상남도 거제시 장평4로 40,경상남도교육청,34.88608569,거제시,128.6064665,경남,5736948490,중학교,0,0,0,0,302,506,704,632,632,605,594,603,646,650,651,8916.0,9216.0,9047.0,8444.0,7759.0,7524.0,7406.0,7533.0,8018.0,8672.0,9229.0,9590.0,9973.0,10384.0,10284.0,10262.0,10202.0,10155.0,9380.0,7877.0,6262.0,5094.0,4262.0,3603.0,2973.0
연무여자중학교,1970-04-10,본교,충청남도 논산시 연무읍 동산리 879,충청남도 논산시 연무읍 동안로887번길 5,충청남도교육청,36.13536466,논산시,127.1046328,충남,2970162987,중학교,272,257,241,245,242,235,204,182,173,154,157,163,170,157,150,4701.0,4612.0,4274.0,3926.0,3491.0,3240.0,3077.0,3029.0,3042.0,3028.0,2963.0,2817.0,2818.0,2819.0,2694.0,2548.0,2434.0,2342.0,2187.0,2001.0,1895.0,1724.0,1549.0,1344.0,1238.0
가수원중학교,1988-03-05,본교,대전광역시 서구 가수원동 806-18,대전광역시 서구 가수원로 26,대전광역시교육청,36.29847211,대전광역시 서구,127.354558,대전,8807370245,중학교,667,640,576,535,451,377,312,229,204,194,193,177,164,175,164,19650.0,19711.0,19194.0,18015.0,16941.0,16500.0,15967.0,15299.0,14932.0,14790.0,14317.0,13832.0,13824.0,14211.0,14115.0,13795.0,13418.0,12983.0,12074.0,10669.0,9403.0,8461.0,7836.0,7588.0,7330.0
동원중학교,1984-12-18,본교,대구광역시 수성구 만촌동 254,대구광역시 수성구 효행로2길 81,대구광역시교육청,35.87585642,대구광역시 수성구,128.6510708,대구,6826142609,중학교,913,966,946,910,816,770,667,633,593,553,490,455,436,433,450,16005.0,15151.0,14210.0,12889.0,11398.0,10129.0,9445.0,8813.0,8941.0,9150.0,9177.0,8735.0,8526.0,8663.0,8500.0,8404.0,8018.0,7784.0,6980.0,6091.0,5259.0,4624.0,4300.0,4145.0,3969.0
고헌중학교,2020-03-01,본교,울산광역시 북구 화봉동 1485-1,울산광역시 북구 박상진2로 81,울산광역시교육청,35.59777915,울산광역시 북구,129.364027,울산,1467438757,중학교,0,0,0,0,0,0,0,0,0,0,0,266,554,855,913,6120.0,7214.0,6464.0,5666.0,4995.0,4840.0,5045.0,5392.0,5836.0,6315.0,6496.0,6639.0,6792.0,6997.0,6857.0,6578.0,6506.0,6483.0,6241.0,5809.0,5657.0,5622.0,5380.0,4825.0,4263.0
능인중학교,1939-10-09,본교,대구광역시 수성구 지산동 800,대구광역시 수성구 무학로 207,대구광역시교육청,35.83210847,대구광역시 수성구,128.632547,대구,5817737162,중학교,1266,1259,1153,1170,1116,1086,956,819,715,665,600,602,606,594,595,16005.0,15151.0,14210.0,12889.0,11398.0,10129.0,9445.0,8813.0,8941.0,9150.0,9177.0,8735.0,8526.0,8663.0,8500.0,8404.0,8018.0,7784.0,6980.0,6091.0,5259.0,4624.0,4300.0,4145.0,3969.0
원평중학교,2003-03-01,본교,충청북도 청주시 서원구 분평동 1362,충청북도 청주시 서원구 1순환로1137번길 36,충청북도교육청,36.6080651,서원구,127.4938827,충북,8409732758,중학교,1114,1105,1088,962,901,829,761,728,683,673,645,697,690,684,676,0.0,0.0,0.0,0.0,0.0,0.0,0.0,0.0,0.0,0.0,0.0,0.0,0.0,0.0,0.0,0.0,0.0,6129.0,5493.0,4762.0,4005.0,3314.0,2783.0,2599.0,2552.0
반곡중학교,2019-05-01,본교,세종특별자치시 반곡동 816,세종특별자치시 시청대로 480,세종특별자치시교육청,36.50043435,세종특별자치시,127.311751,세종,1587742269,중학교,0,0,0,0,0,0,0,0,0,0,37,301,382,430,467,3002.0,2964.0,2813.0,2687.0,2521.0,2597.0,2571.0,2514.0,2417.0,2403.0,2361.0,2413.0,2362.0,2703.0,2926.0,3509.0,5163.0,7349.0,9509.0,10504.0,11026.0,10990.0,10857.0,10247.0,9540.0
연산중학교,1978-01-30,본교,부산광역시 연제구 연산동 955-11,부산광역시 연제구 고분로56번길 39,부산광역시교육청,35.1848634,부산광역시 연제구,129.0890237,부산,2399054169,중학교,856,805,764,738,704,623,508,407,384,352,372,392,426,394,400,7149.0,6804.0,6333.0,5888.0,5483.0,5207.0,4928.0,4645.0,4728.0,4833.0,4778.0,4734.0,4807.0,5014.0,4873.0,4767.0,4570.0,4554.0,4269.0,4020.0,3756.0,3536.0,3277.0,3008.0,2786.0
일산중학교,1985-01-31,본교,울산광역시 동구 일산동 437-3,울산광역시 동구 진성15길 15,울산광역시교육청,35.50582768,울산광역시 동구,129.4227382,울산,6613222420,중학교,709,669,616,595,598,570,496,388,304,277,299,349,430,480,501,8923.0,8145.0,7427.0,6696.0,5963.0,5717.0,5584.0,5624.0,6020.0,6169.0,6144.0,5844.0,5938.0,6306.0,6548.0,6819.0,6682.0,6474.0,5887.0,5042.0,4120.0,3222.0,2659.0,2178.0,1992.0
역삼중학교,1984-04-06,본교,서울특별시 강남구 역삼동 767-20,서울특별시 강남구 도곡로43길 10,서울특별시교육청,37.49593388,서울특별시 강남구,127.048844,서울,7543626010,중학교,1310,1433,1440,1345,1389,1303,1292,1218,1174,1133,1152,1167,1193,1197,1175,18180.0,18430.0,17340.0,15735.0,13885.0,12978.0,12490.0,12460.0,13165.0,13853.0,13867.0,13810.0,13985.0,14500.0,14215.0,14108.0,13800.0,13371.0,12173.0,10518.0,9145.0,8045.0,7309.0,6556.0,6496.0
김화중학교,1955-08-08,본교,강원특별자치도 철원군 서면 와수리 589-5 번지,강원특별자치도 철원군 서면 와수1로 72,강원특별자치도교육청,38.24340756,철원군,127.434946,강원,3250445246,중학교,217,208,199,171,192,190,183,133,132,130,134,124,116,115,117,2199.0,2259.0,2125.0,1992.0,1723.0,1590.0,1431.0,1390.0,1363.0,1370.0,1327.0,1328.0,1292.0,1312.0,1248.0,1268.0,1235.0,1212.0,1128.0,1060.0,1032.0,1025.0,968.0,887.0,772.0
소래중학교,1959-04-12,본교,경기도 시흥시 은행동 107-1,경기도 시흥시 은행로 60,경기도교육청,37.43735861,시흥시,126.7967625,경기,8986370146,중학교,1833,1727,1677,1619,1586,1474,1268,1085,972,861,778,704,836,857,880,13894.0,15905.0,16655.0,16517.0,15601.0,15076.0,14592.0,14335.0,14354.0,14425.0,14012.0,13567.0,13240.0,12918.0,11947.0,10906.0,10142.0,9678.0,9227.0,9066.0,9306.0,9705.0,9861.0,9748.0,9400.0
경남여자중학교,1927-04-23,본교,부산광역시 동구 수정동 364,부산광역시 동구 초량중로 142,부산광역시교육청,35.12387731,부산광역시 동구,129.042595,부산,9249271690,중학교,702,677,684,679,660,636,552,495,413,379,385,392,386,372,355,4155.0,3792.0,3378.0,3014.0,2707.0,2439.0,2169.0,1953.0,1918.0,1924.0,1912.0,1858.0,1897.0,1933.0,1858.0,1711.0,1554.0,1438.0,1291.0,1130.0,1028.0,1002.0,1061.0,1097.0,1116.0
광주송원중학교,1978-03-23,본교,광주광역시 남구 송하동 365-34,광주광역시 남구 송암로 73,광주광역시교육청,35.10818451,광주광역시 남구,126.8732664,광주,5480055093,중학교,895,901,847,849,826,800,764,713,674,626,611,621,622,630,591,9051.0,8347.0,7372.0,6407.0,5473.0,4887.0,4521.0,4373.0,4439.0,4667.0,4688.0,4872.0,4944.0,5159.0,4893.0,4707.0,4551.0,4509.0,4314.0,3879.0,3583.0,3236.0,3110.0,2989.0,2869.0
능곡중학교,1955-09-01,본교,경기도 고양시 덕양구 토당동 394,경기도 고양시 덕양구 행당로11번길 48,경기도교육청,37.62292202,덕양구,126.8266419,경기,1720314204,중학교,1229,1148,1086,1004,918,863,774,703,613,552,496,455,450,404,410,19352.0,19108.0,17854.0,16221.0,14709.0,13987.0,13224.0,12371.0,12051.0,11912.0,11665.0,11361.0,11273.0,11260.0,10640.0,10430.0,10476.0,10789.0,10443.0,9422.0,8575.0,8234.0,8387.0,8712.0,8679.0
두촌중학교,1952-05-30,본교,강원특별자치도 홍천군 두촌면 자은리 568 번지,강원특별자치도 홍천군 두촌면 증골길 61,강원특별자치도교육청,37.87177845,홍천군,128.0263307,강원,5307361602,중학교,41,31,29,36,36,34,22,22,19,13,13,16,21,20,19,2837.0,2745.0,2660.0,2437.0,2187.0,2008.0,1877.0,1731.0,1748.0,1701.0,1712.0,1569.0,1484.0,1448.0,1376.0,1341.0,1322.0,1305.0,1255.0,1142.0,1047.0,964.0,868.0,817.0,799.0
봉선중학교,1983-03-05,본교,광주광역시 남구 봉선동 258-16,광주광역시 남구 봉선중길 14,광주광역시교육청,35.12901152,광주광역시 남구,126.9121466,광주,6553008973,중학교,948,846,806,843,827,765,726,694,638,592,566,558,543,500,514,9051.0,8347.0,7372.0,6407.0,5473.0,4887.0,4521.0,4373.0,4439.0,4667.0,4688.0,4872.0,4944.0,5159.0,4893.0,4707.0,4551.0,4509.0,4314.0,3879.0,3583.0,3236.0,3110.0,2989.0,2869.0
금구중학교,2001-03-05,본교,광주광역시 광산구 운남동 794-1,광주광역시 광산구 목련로153번길 76,광주광역시교육청,35.17553403,광주광역시 광산구,126.8154974,광주,5016908943,중학교,1037,1015,984,967,977,888,815,750,709,629,578,574,559,565,546,15628.0,15242.0,14583.0,13727.0,13077.0,12820.0,12623.0,12335.0,12442.0,12482.0,12303.0,12505.0,13148.0,14066.0,13853.0,13413.0,12680.0,12287.0,11303.0,10150.0,8845.0,7911.0,7444.0,7121.0,6720.0
논곡중학교,2006-03-01,본교,경기도 시흥시 논곡동 160-45,경기도 시흥시 수인로2421번길 72,경기도교육청,37.388873,시흥시,126.8571918,경기,8154591381,중학교,456,452,426,359,364,326,335,313,288,249,218,189,186,182,177,13894.0,15905.0,16655.0,16517.0,15601.0,15076.0,14592.0,14335.0,14354.0,14425.0,14012.0,13567.0,13240.0,12918.0,11947.0,10906.0,10142.0,9678.0,9227.0,9066.0,9306.0,9705.0,9861.0,9748.0,9400.0
성광중학교,1953-10-08,본교,대구광역시 북구 검단동 986-1,대구광역시 북구 검단로 150,대구광역시교육청,35.9075717,대구광역시 북구,128.6242288,대구,4890965282,중학교,1114,1095,1056,993,978,981,949,918,896,885,846,843,840,787,718,17442.0,16896.0,16501.0,15788.0,15227.0,15524.0,15774.0,15333.0,15093.0,14769.0,14030.0,13068.0,12736.0,12967.0,12484.0,12009.0,11518.0,11295.0,10497.0,9382.0,8245.0,7421.0,6647.0,6171.0,5622.0
운림중학교,2002-03-01,본교,광주광역시 동구 운림동 650,광주광역시 동구 의재로 137,광주광역시교육청,35.13323178,광주광역시 동구,126.9418973,광주,8564639985,중학교,462,418,439,408,371,317,310,295,292,263,270,283,281,252,229,4326.0,3930.0,3451.0,2964.0,2579.0,2418.0,2291.0,2123.0,2097.0,2097.0,2025.0,1913.0,2029.0,2353.0,2518.0,2578.0,2340.0,2079.0,1762.0,1543.0,1443.0,1412.0,1591.0,1779.0,1827.0
화진중학교,1980-01-24,본교,울산광역시 동구 화정동 828,울산광역시 동구 양지1길 45,울산광역시교육청,35.49681312,울산광역시 동구,129.4220643,울산,1098264336,중학교,721,690,635,601,533,488,436,382,316,281,305,351,354,331,318,8923.0,8145.0,7427.0,6696.0,5963.0,5717.0,5584.0,5624.0,6020.0,6169.0,6144.0,5844.0,5938.0,6306.0,6548.0,6819.0,6682.0,6474.0,5887.0,5042.0,4120.0,3222.0,2659.0,2178.0,1992.0
남외중학교,2007-03-01,본교,울산광역시 중구 남외동 502-1,울산광역시 중구 남외3길 50,울산광역시교육청,35.566448,울산광역시 중구,129.3491332,울산,4366425514,중학교,1123,1177,1122,1184,1175,1177,1025,939,820,772,760,772,781,735,672,11519.0,9816.0,8844.0,8052.0,7371.0,6742.0,6307.0,5947.0,6038.0,6153.0,6037.0,5714.0,5558.0,5686.0,5652.0,5732.0,5822.0,6106.0,5989.0,5361.0,4424.0,3560.0,3011.0,2577.0,2374.0
춘양중학교,1951-10-27,본교,경상북도 봉화군 춘양면 서동리 83-1,경상북도 봉화군 춘양면 서원촌길 8-14,경상북도교육청,36.94786297,봉화군,128.914111,경북,2720918715,중학교,93,87,75,75,83,90,71,65,57,52,42,47,45,35,27,1065.0,1019.0,954.0,850.0,745.0,685.0,648.0,636.0,649.0,679.0,693.0,726.0,721.0,743.0,675.0,650.0,600.0,579.0,541.0,501.0,461.0,402.0,319.0,248.0,199.0
덕원중학교,1953-07-13,본교,부산광역시 중구 동광동5가 15-12,부산광역시 중구 망양로 356,부산광역시교육청,35.10885429,부산광역시 중구,129.0324467,부산,8310751736,중학교,673,631,593,547,518,466,397,336,290,267,243,251,228,247,244,1826.0,1811.0,1708.0,1601.0,1412.0,1264.0,1099.0,998.0,934.0,940.0,935.0,962.0,977.0,977.0,888.0,828.0,787.0,732.0,642.0,548.0,449.0,369.0,289.0,278.0,254.0
기성중학교,1969-10-14,본교,경상북도 울진군 기성면 기성리 288,경상북도 울진군 기성면 기성본길 58-5,경상북도교육청,36.79972762,울진군,129.457642,경북,6933493196,중학교,37,35,26,29,30,27,26,16,16,12,17,12,20,19,23,2341.0,2197.0,2034.0,1967.0,1822.0,1642.0,1424.0,1229.0,1163.0,1109.0,1145.0,1087.0,1088.0,1066.0,1071.0,1094.0,1101.0,1057.0,941.0,811.0,743.0,686.0,638.0,587.0,556.0
부산영선중학교,1953-05-01,본교,부산광역시 영도구 신선동3가 8,부산광역시 영도구 영상길 83,부산광역시교육청,35.08626719,부산광역시 영도구,129.044679,부산,7458343565,중학교,609,568,552,523,491,458,393,362,305,271,234,229,223,208,210,5939.0,5425.0,4967.0,4415.0,3963.0,3508.0,3158.0,2905.0,2851.0,2856.0,2668.0,2567.0,2512.0,2538.0,2328.0,2130.0,1971.0,1906.0,1722.0,1492.0,1219.0,1039.0,901.0,876.0,904.0
사하중학교,1970-01-13,본교,부산광역시 사하구 괴정동 1091-1,부산광역시 사하구 낙동대로302번길 35,부산광역시교육청,35.10124786,부산광역시 사하구,128.9826725,부산,2897174179,중학교,902,871,837,775,743,679,638,611,594,542,502,486,491,469,459,15158.0,14376.0,13255.0,11931.0,10580.0,9871.0,9233.0,8970.0,8864.0,9125.0,9171.0,9136.0,9257.0,9511.0,9309.0,8794.0,8271.0,7818.0,7159.0,6291.0,5419.0,4681.0,4006.0,3652.0,3401.0
세종중학교,1927-03-01,본교,세종특별자치시 조치원읍 교리 1-1,세종특별자치시 조치원읍 새내로 160,세종특별자치시교육청,36.60705472,세종특별자치시,127.2977981,세종,6859340846,중학교,0,0,0,0,891,837,727,651,634,609,560,548,547,523,499,3002.0,2964.0,2813.0,2687.0,2521.0,2597.0,2571.0,2514.0,2417.0,2403.0,2361.0,2413.0,2362.0,2703.0,2926.0,3509.0,5163.0,7349.0,9509.0,10504.0,11026.0,10990.0,10857.0,10247.0,9540.0
백양중학교,1995-12-01,본교,경기도 고양시 덕양구 화정동 992,경기도 고양시 덕양구 화신로 236,경기도교육청,37.63133167,덕양구,126.835944,경기,8472052276,중학교,1283,1216,1125,976,926,799,666,578,544,545,533,538,480,411,340,19352.0,19108.0,17854.0,16221.0,14709.0,13987.0,13224.0,12371.0,12051.0,11912.0,11665.0,11361.0,11273.0,11260.0,10640.0,10430.0,10476.0,10789.0,10443.0,9422.0,8575.0,8234.0,8387.0,8712.0,8679.0
화촌중학교,1954-05-10,본교,강원특별자치도 홍천군 화촌면 내삼포리 349 번지,강원특별자치도 홍천군 화촌면 삼포5길 5,강원특별자치도교육청,37.75547209,홍천군,127.9632163,강원,1746645987,중학교,34,35,38,42,24,16,17,19,23,24,20,21,20,30,23,2837.0,2745.0,2660.0,2437.0,2187.0,2008.0,1877.0,1731.0,1748.0,1701.0,1712.0,1569.0,1484.0,1448.0,1376.0,1341.0,1322.0,1305.0,1255.0,1142.0,1047.0,964.0,868.0,817.0,799.0
서남중학교,1981-12-18,본교,대구광역시 서구 중리동 713,대구광역시 서구 당산로41서길 97,대구광역시교육청,35.85695496,대구광역시 서구,128.5425852,대구,4110431730,중학교,497,468,408,345,275,247,212,188,172,160,157,225,195,171,137,11827.0,10571.0,9614.0,8540.0,7486.0,6640.0,5919.0,5274.0,4882.0,4671.0,4304.0,3974.0,4003.0,4311.0,4403.0,4216.0,3870.0,3593.0,3196.0,2644.0,2072.0,1613.0,1310.0,1117.0,1077.0
서해중학교,1997-03-01,본교,경기도 시흥시 정왕동 1866-4,경기도 시흥시 옥구천서로373번길 18,경기도교육청,37.35717907,시흥시,126.7260914,경기,5135259270,중학교,1121,1097,993,930,914,829,736,657,657,687,838,770,781,779,759,13894.0,15905.0,16655.0,16517.0,15601.0,15076.0,14592.0,14335.0,14354.0,14425.0,14012.0,13567.0,13240.0,12918.0,11947.0,10906.0,10142.0,9678.0,9227.0,9066.0,9306.0,9705.0,9861.0,9748.0,9400.0
울산강남중학교,1983-10-25,본교,울산광역시 남구 삼산동 1535-1,울산광역시 남구 돋질로 325번길 14,울산광역시교육청,35.54588733,울산광역시 남구,129.3415029,울산,9954685688,중학교,576,526,575,654,654,611,579,544,536,541,521,527,530,528,502,14805.0,14527.0,13779.0,12730.0,11409.0,10576.0,10019.0,9512.0,9454.0,9362.0,9323.0,9206.0,9362.0,9671.0,9629.0,9638.0,9472.0,9205.0,8425.0,7326.0,6346.0,5638.0,5220.0,4871.0,4539.0
가창중학교,1963-07-05,본교,대구광역시 달성군 가창면 냉천리 772-2,대구광역시 달성군 가창면 원정길 2,대구광역시교육청,35.77402651,대구광역시 달성군,128.6440241,대구,5652160108,중학교,46,59,51,75,108,122,122,88,63,76,91,106,110,119,119,7333.0,7244.0,7059.0,6717.0,6010.0,5579.0,5338.0,5137.0,5100.0,5160.0,5347.0,5675.0,5948.0,6279.0,6103.0,5925.0,5699.0,6098.0,6879.0,7805.0,8190.0,7867.0,7215.0,6463.0,5846.0
학성여자중학교,1946-10-15,본교,울산광역시 중구 태화동 747-1,울산광역시 중구 명정3길 12,울산광역시교육청,35.5546567,울산광역시 중구,129.2906648,울산,6234284758,중학교,984,807,765,694,678,642,624,588,559,524,511,482,459,399,398,11519.0,9816.0,8844.0,8052.0,7371.0,6742.0,6307.0,5947.0,6038.0,6153.0,6037.0,5714.0,5558.0,5686.0,5652.0,5732.0,5822.0,6106.0,5989.0,5361.0,4424.0,3560.0,3011.0,2577.0,2374.0
경명여자중학교,1955-05-09,본교,대구광역시 북구 칠성동2가 411,대구광역시 북구 칠성로17길 18,대구광역시교육청,35.88072706,대구광역시 북구,128.5984327,대구,5215652585,중학교,766,711,694,690,707,712,683,653,623,628,613,616,625,619,585,17442.0,16896.0,16501.0,15788.0,15227.0,15524.0,15774.0,15333.0,15093.0,14769.0,14030.0,13068.0,12736.0,12967.0,12484.0,12009.0,11518.0,11295.0,10497.0,9382.0,8245.0,7421.0,6647.0,6171.0,5622.0
신일중학교,1994-05-01,본교,경기도 고양시 일산서구 일산동 1096,경기도 고양시 일산서구 고봉로 177,경기도교육청,37.676614,일산서구,126.7741412,경기,7296000719,중학교,1780,1700,1641,1567,1522,1392,1257,1123,1058,987,934,917,973,958,929,0.0,0.0,0.0,0.0,0.0,0.0,0.0,0.0,7898.0,8024.0,7540.0,7059.0,6755.0,7122.0,7048.0,6898.0,6680.0,6540.0,6114.0,5366.0,4744.0,4407.0,4291.0,4149.0,3886.0
팔달중학교,1998-11-21,본교,대구광역시 북구 팔달동 74-3,대구광역시 북구 매천로2길 19-22,대구광역시교육청,35.89894723,대구광역시 북구,128.5449124,대구,5231940567,중학교,510,462,414,371,323,313,300,297,267,215,176,183,198,183,178,17442.0,16896.0,16501.0,15788.0,15227.0,15524.0,15774.0,15333.0,15093.0,14769.0,14030.0,13068.0,12736.0,12967.0,12484.0,12009.0,11518.0,11295.0,10497.0,9382.0,8245.0,7421.0,6647.0,6171.0,5622.0
광주효광중학교,1972-03-09,본교,광주광역시 서구 쌍촌동 1212,광주광역시 서구 쌍촌로15번길 8,광주광역시교육청,35.14712562,광주광역시 서구,126.8634316,광주,6084679722,중학교,968,983,957,912,780,639,523,472,440,430,396,409,421,415,428,10145.0,11391.0,12168.0,13199.0,12466.0,11516.0,10699.0,9812.0,9431.0,9292.0,8865.0,8373.0,8120.0,8376.0,8268.0,7994.0,7291.0,6890.0,6449.0,5965.0,5349.0,4674.0,4227.0,3875.0,3566.0
정발중학교,1995-05-01,본교,경기도 고양시 일산동구 마두동 811,경기도 고양시 일산동구 정발산로 115,경기도교육청,37.6594744,일산동구,126.7807456,경기,6296756088,중학교,1753,1655,1567,1467,1384,1249,1156,1054,1028,1030,986,961,1001,989,943,0.0,0.0,0.0,0.0,0.0,0.0,0.0,0.0,6299.0,6674.0,6643.0,6505.0,6426.0,6595.0,6575.0,6455.0,6312.0,6080.0,5762.0,5216.0,4716.0,4257.0,3995.0,3900.0,3669.0
대송중학교,2004-03-01,본교,경기도 고양시 일산서구 대화동 1492-1,경기도 고양시 일산서구 송포로 49,경기도교육청,37.67086006,일산서구,126.7308676,경기,8909814000,중학교,1096,1148,1094,1046,944,851,742,682,684,680,623,596,565,524,478,0.0,0.0,0.0,0.0,0.0,0.0,0.0,0.0,7898.0,8024.0,7540.0,7059.0,6755.0,7122.0,7048.0,6898.0,6680.0,6540.0,6114.0,5366.0,4744.0,4407.0,4291.0,4149.0,3886.0
영해중학교,1951-10-30,본교,경상북도 영덕군 영해면 괴시리 115,경상북도 영덕군 영해면 예주길 135,경상북도교육청,36.54233749,영덕군,129.4132252,경북,3230489611,중학교,266,277,279,272,264,246,226,193,202,179,168,156,161,144,138,1301.0,1270.0,1158.0,1035.0,900.0,819.0,779.0,757.0,814.0,785.0,745.0,706.0,694.0,681.0,634.0,633.0,630.0,589.0,586.0,523.0,540.0,483.0,436.0,364.0,294.0
물야중학교,1971-03-22,본교,경상북도 봉화군 물야면 오록리 465,경상북도 봉화군 물야면 오록4길 11,경상북도교육청,36.97811734,봉화군,128.7387726,경북,7554638624,중학교,25,25,30,31,31,23,25,21,19,21,24,26,14,11,11,1065.0,1019.0,954.0,850.0,745.0,685.0,648.0,636.0,649.0,679.0,693.0,726.0,721.0,743.0,675.0,650.0,600.0,579.0,541.0,501.0,461.0,402.0,319.0,248.0,199.0
진장중학교,2004-03-01,본교,울산광역시 북구 진장동 687-5,울산광역시 북구 진장10길 24,울산광역시교육청,35.563625,울산광역시 북구,129.3583245,울산,7437699139,중학교,960,972,924,801,813,736,657,509,439,420,384,336,317,283,304,6120.0,7214.0,6464.0,5666.0,4995.0,4840.0,5045.0,5392.0,5836.0,6315.0,6496.0,6639.0,6792.0,6997.0,6857.0,6578.0,6506.0,6483.0,6241.0,5809.0,5657.0,5622.0,5380.0,4825.0,4263.0
후포중학교,1955-05-13,본교,경상북도 울진군 후포면 후포리 1015,경상북도 울진군 후포면 후포로 41,경상북도교육청,36.68031187,울진군,129.4459375,경북,1585508525,중학교,335,311,303,294,277,255,240,230,234,221,203,190,170,170,151,2341.0,2197.0,2034.0,1967.0,1822.0,1642.0,1424.0,1229.0,1163.0,1109.0,1145.0,1087.0,1088.0,1066.0,1071.0,1094.0,1101.0,1057.0,941.0,811.0,743.0,686.0,638.0,587.0,556.0
고양송산중학교,2006-03-01,본교,경기도 고양시 일산서구 가좌동 1100,경기도 고양시 일산서구 가좌2로 15,경기도교육청,37.68786495,일산서구,126.722004,경기,1813410460,중학교,883,911,998,1051,1098,1049,984,926,862,798,775,760,756,664,589,0.0,0.0,0.0,0.0,0.0,0.0,0.0,0.0,7898.0,8024.0,7540.0,7059.0,6755.0,7122.0,7048.0,6898.0,6680.0,6540.0,6114.0,5366.0,4744.0,4407.0,4291.0,4149.0,3886.0
저동중학교,1994-11-01,본교,경기도 고양시 일산동구 정발산동 1192,경기도 고양시 일산동구 무궁화로 159,경기도교육청,37.67073855,일산동구,126.7779123,경기,5836774945,중학교,1561,1485,1312,1188,1107,988,839,729,662,618,568,553,531,499,465,0.0,0.0,0.0,0.0,0.0,0.0,0.0,0.0,6299.0,6674.0,6643.0,6505.0,6426.0,6595.0,6575.0,6455.0,6312.0,6080.0,5762.0,5216.0,4716.0,4257.0,3995.0,3900.0,3669.0
구영중학교,2008-03-01,본교,울산광역시 울주군 범서읍 구영리 753-2,울산광역시 울주군 범서읍 점촌3길 46,울산광역시교육청,35.57265964,울산광역시 울주군,129.2364891,울산,2951540946,중학교,547,852,861,879,902,879,847,802,759,747,721,716,711,685,687,9343.0,8551.0,8642.0,7938.0,7248.0,6662.0,6385.0,5885.0,5816.0,6061.0,6353.0,6427.0,6357.0,6474.0,6346.0,6279.0,6136.0,5930.0,5481.0,4902.0,4522.0,4263.0,4013.0,3692.0,3440.0
성포중학교,1989-12-22,본교,경기도 안산시 상록구 월피동 459,경기도 안산시 상록구 월피로 73,경기도교육청,37.33552772,상록구,126.8512845,경기,2894582629,중학교,1774,1578,1412,1301,1219,1114,998,882,835,762,654,596,550,529,496,0.0,0.0,0.0,0.0,0.0,14078.0,13421.0,12674.0,12550.0,12445.0,11984.0,11147.0,10935.0,10927.0,10656.0,10240.0,9994.0,9509.0,8677.0,7431.0,6397.0,5672.0,5259.0,4911.0,4631.0
회천중학교,2006-03-01,본교,경기도 양주시 고암동 122-2,경기도 양주시 고암길 77,경기도교육청,37.83264346,양주시,127.0709384,경기,9702703416,중학교,830,872,859,855,876,868,798,680,556,507,430,436,429,413,391,4664.0,4717.0,4890.0,5216.0,5251.0,5264.0,5041.0,5019.0,5380.0,5642.0,5730.0,5663.0,5869.0,6083.0,5789.0,5392.0,5005.0,4838.0,4551.0,4231.0,3962.0,3803.0,3717.0,3664.0,3810.0
광탄중학교,1966-12-19,본교,경기도 파주시 광탄면 신산리 232,경기도 파주시 광탄면 혜음로 1128,경기도교육청,37.78194408,파주시,126.8473214,경기,2763426363,중학교,441,409,382,353,347,326,294,258,233,227,218,204,211,219,193,7115.0,7193.0,7266.0,7669.0,7848.0,7757.0,7582.0,7886.0,8943.0,9750.0,9896.0,10186.0,10853.0,12112.0,12293.0,12358.0,12054.0,11965.0,11363.0,10512.0,9713.0,8995.0,8310.0,7963.0,7700.0
고양제일중학교,1971-10-15,본교,경기도 고양시 덕양구 관산동 332,경기도 고양시 덕양구 통일로 820,경기도교육청,37.69052753,덕양구,126.8592787,경기,4693231225,중학교,1135,1115,1060,1107,1112,1165,1137,1153,1156,1097,1045,987,979,929,871,19352.0,19108.0,17854.0,16221.0,14709.0,13987.0,13224.0,12371.0,12051.0,11912.0,11665.0,11361.0,11273.0,11260.0,10640.0,10430.0,10476.0,10789.0,10443.0,9422.0,8575.0,8234.0,8387.0,8712.0,8679.0
한빛중학교,2009-09-01,본교,경기도 파주시 야당동 992,경기도 파주시 한빛로 56,경기도교육청,37.71464292,파주시,126.7548813,경기,2550659596,중학교,0,271,386,726,1016,1143,1137,1113,1092,1098,1087,1042,1050,1054,1052,7115.0,7193.0,7266.0,7669.0,7848.0,7757.0,7582.0,7886.0,8943.0,9750.0,9896.0,10186.0,10853.0,12112.0,12293.0,12358.0,12054.0,11965.0,11363.0,10512.0,9713.0,8995.0,8310.0,7963.0,7700.0
덕현중학교,2006-03-01,본교,경기도 양주시 고읍동 79-33,경기도 양주시 고읍로35번길 21,경기도교육청,37.80025944,양주시,127.0800863,경기,8855988502,중학교,597,762,1008,1159,1280,1295,1223,1186,1179,1169,1146,1119,1092,1072,1032,4664.0,4717.0,4890.0,5216.0,5251.0,5264.0,5041.0,5019.0,5380.0,5642.0,5730.0,5663.0,5869.0,6083.0,5789.0,5392.0,5005.0,4838.0,4551.0,4231.0,3962.0,3803.0,3717.0,3664.0,3810.0
대화중학교,1995-06-05,본교,경기도 고양시 일산서구 대화동 2230,경기도 고양시 일산서구 고양대로 348,경기도교육청,37.673814,일산서구,126.7444769,경기,3410847783,중학교,1170,1079,1011,900,899,797,696,596,569,563,543,552,560,506,462,0.0,0.0,0.0,0.0,0.0,0.0,0.0,0.0,7898.0,8024.0,7540.0,7059.0,6755.0,7122.0,7048.0,6898.0,6680.0,6540.0,6114.0,5366.0,4744.0,4407.0,4291.0,4149.0,3886.0
한별중학교,2014-09-01,본교,경기도 남양주시 별내동 1055,경기도 남양주시 별내4로 70,경기도교육청,37.64880857,남양주시,127.1188629,경기,6122165203,중학교,0,0,0,0,0,0,252,409,513,536,570,669,804,841,870,14389.0,15379.0,15484.0,14735.0,13473.0,12852.0,12596.0,13031.0,14408.0,15759.0,16131.0,16317.0,17028.0,18027.0,17711.0,17041.0,16548.0,16261.0,15228.0,13760.0,12397.0,11658.0,11134.0,10888.0,10448.0
신천중학교,2001-03-01,본교,경기도 시흥시 신천동 262,경기도 시흥시 포도원로 88-1,경기도교육청,37.43428739,시흥시,126.782428,경기,7879148900,중학교,1287,1052,926,876,760,706,603,541,469,389,309,278,294,308,261,13894.0,15905.0,16655.0,16517.0,15601.0,15076.0,14592.0,14335.0,14354.0,14425.0,14012.0,13567.0,13240.0,12918.0,11947.0,10906.0,10142.0,9678.0,9227.0,9066.0,9306.0,9705.0,9861.0,9748.0,9400.0
일직중학교,1953-03-01,본교,경상북도 안동시 일직면 귀미리 1016-3,경상북도 안동시 일직면 하나들길 13,경상북도교육청,36.4706707,안동시,128.6638115,경북,4644209027,중학교,52,49,44,41,45,40,32,27,27,39,37,57,54,51,31,5832.0,5675.0,5538.0,5159.0,4712.0,4357.0,4088.0,3905.0,4045.0,4204.0,4421.0,4496.0,4677.0,4839.0,4750.0,4464.0,4299.0,4132.0,3990.0,3462.0,3000.0,2541.0,2331.0,2124.0,1998.0
성지중학교,2001-03-01,본교,대구광역시 달서구 이곡동 1300-2,대구광역시 달서구 성서동로 361,대구광역시교육청,35.85336693,대구광역시 달서구,128.5146753,대구,7552350163,중학교,1452,1391,1309,1288,1247,1191,1046,969,877,833,738,722,680,667,671,22781.0,24170.0,23767.0,22111.0,19929.0,18327.0,16817.0,15187.0,14741.0,14819.0,15123.0,15300.0,15713.0,16200.0,15893.0,15585.0,15171.0,14578.0,13259.0,11251.0,9674.0,8341.0,7531.0,6616.0,6246.0
매천중학교,2008-03-01,본교,대구광역시 북구 태전동 1128,대구광역시 북구 매전로 56,대구광역시교육청,35.91048477,대구광역시 북구,128.547327,대구,1291286289,중학교,716,1119,1129,1115,1108,1092,1010,914,834,780,675,671,656,675,634,17442.0,16896.0,16501.0,15788.0,15227.0,15524.0,15774.0,15333.0,15093.0,14769.0,14030.0,13068.0,12736.0,12967.0,12484.0,12009.0,11518.0,11295.0,10497.0,9382.0,8245.0,7421.0,6647.0,6171.0,5622.0
덕계중학교,2001-03-02,본교,경기도 양주시 덕계동 406-2,경기도 양주시 평화로1416번길 66-13,경기도교육청,37.816207,양주시,127.0500454,경기,3591926932,중학교,941,875,782,751,611,539,473,474,470,441,444,439,488,456,505,4664.0,4717.0,4890.0,5216.0,5251.0,5264.0,5041.0,5019.0,5380.0,5642.0,5730.0,5663.0,5869.0,6083.0,5789.0,5392.0,5005.0,4838.0,4551.0,4231.0,3962.0,3803.0,3717.0,3664.0,3810.0
백신중학교,1992-09-01,본교,경기도 고양시 일산동구 마두동 788,경기도 고양시 일산동구 강촌로 89,경기도교육청,37.65133133,일산동구,126.7831773,경기,2550763130,중학교,1774,1729,1625,1559,1541,1446,1286,1127,1054,954,843,783,816,830,835,0.0,0.0,0.0,0.0,0.0,0.0,0.0,0.0,6299.0,6674.0,6643.0,6505.0,6426.0,6595.0,6575.0,6455.0,6312.0,6080.0,5762.0,5216.0,4716.0,4257.0,3995.0,3900.0,3669.0
예당중학교,2011-05-15,본교,경기도 화성시 석우동 61-1,경기도 화성시 노작로 226-35,경기도교육청,37.20806531,화성시,127.079278,경기,8627416551,중학교,0,0,301,615,883,892,838,810,812,841,832,818,837,820,798,7886.0,8077.0,8245.0,8327.0,8326.0,8884.0,9967.0,11347.0,13475.0,16299.0,19553.0,22360.0,23697.0,23810.0,22128.0,20411.0,19481.0,20218.0,20992.0,21444.0,21340.0,21178.0,20551.0,19838.0,19710.0
부림중학교,1992-01-08,본교,경기도 안양시 동안구 관양동 1586-1,경기도 안양시 동안구 달안로 95,경기도교육청,37.39806651,동안구,126.9532768,경기,1754579961,중학교,1276,1318,1323,1301,1172,1220,1177,1128,1020,881,843,785,809,722,719,14486.0,14303.0,13672.0,12477.0,11340.0,11300.0,11425.0,11368.0,11255.0,11173.0,10790.0,10455.0,10243.0,10281.0,9977.0,9772.0,9635.0,9275.0,8479.0,7591.0,6977.0,6451.0,6053.0,5901.0,5779.0
근덕중학교,1951-10-17,본교,강원특별자치도 삼척시 근덕면 교가리 540 번지,강원특별자치도 삼척시 근덕면 삼척로 3700,강원특별자치도교육청,37.38492867,삼척시,129.2243017,강원,7082797288,중학교,75,57,57,71,91,82,73,59,56,44,31,32,34,33,23,2636.0,2718.0,2570.0,2311.0,1970.0,1814.0,1647.0,1560.0,1526.0,1496.0,1455.0,1410.0,1416.0,1473.0,1431.0,1376.0,1275.0,1220.0,1139.0,1059.0,1044.0,1065.0,1011.0,940.0,858.0
백마중학교,1993-06-01,본교,경기도 고양시 일산동구 마두동 733,경기도 고양시 일산동구 강촌로 189,경기도교육청,37.65512778,일산동구,126.7933085,경기,3051236510,중학교,1541,1495,1390,1360,1329,1215,1040,881,819,811,759,714,659,635,611,0.0,0.0,0.0,0.0,0.0,0.0,0.0,0.0,6299.0,6674.0,6643.0,6505.0,6426.0,6595.0,6575.0,6455.0,6312.0,6080.0,5762.0,5216.0,4716.0,4257.0,3995.0,3900.0,3669.0
삼숭중학교,2005-09-01,본교,경기도 양주시 삼숭동 679-1,경기도 양주시 삼숭로38번길 136,경기도교육청,37.79780068,양주시,127.1086048,경기,9025050282,중학교,489,497,601,721,843,889,873,882,914,992,973,1001,961,939,903,4664.0,4717.0,4890.0,5216.0,5251.0,5264.0,5041.0,5019.0,5380.0,5642.0,5730.0,5663.0,5869.0,6083.0,5789.0,5392.0,5005.0,4838.0,4551.0,4231.0,3962.0,3803.0,3717.0,3664.0,3810.0
여수웅천중학교,2015-04-20,본교,전라남도 여수시 웅천동 1672,전라남도 여수시 웅천북로 24,전라남도교육청,34.75103353,여수시,127.674991,전남,1853368401,중학교,0,0,0,0,0,0,204,407,606,627,671,727,738,733,720,13687.0,13188.0,12391.0,11227.0,10024.0,9155.0,8542.0,7954.0,7795.0,7793.0,7712.0,7523.0,7649.0,7784.0,7654.0,7296.0,7227.0,7089.0,6812.0,6053.0,5339.0,4787.0,4399.0,4094.0,3744.0
안산부곡중학교,1995-03-01,본교,경기도 안산시 상록구 부곡동 693,경기도 안산시 상록구 부곡로 15,경기도교육청,37.32381712,상록구,126.8587264,경기,9756853461,중학교,1578,1383,1198,1052,912,839,724,663,612,570,543,519,501,457,448,0.0,0.0,0.0,0.0,0.0,14078.0,13421.0,12674.0,12550.0,12445.0,11984.0,11147.0,10935.0,10927.0,10656.0,10240.0,9994.0,9509.0,8677.0,7431.0,6397.0,5672.0,5259.0,4911.0,4631.0
포천중학교,1948-02-01,본교,경기도 포천시 신북면 가채리 841-1,경기도 포천시 신북면 중앙로207번길 65,경기도교육청,37.90694114,포천시,127.2025475,경기,1914883792,중학교,1181,1038,1053,952,906,797,708,635,563,535,508,501,484,466,448,6325.0,6211.0,5880.0,5466.0,5107.0,4658.0,4380.0,4210.0,4370.0,4367.0,4150.0,3911.0,3740.0,3755.0,3546.0,3347.0,3131.0,3058.0,2943.0,2630.0,2264.0,1971.0,1735.0,1670.0,1594.0
운정중학교,2020-03-01,본교,경기도 파주시 야당동 1032,경기도 파주시 와석순환로 35-33,경기도교육청,37.707956,파주시,126.755632,경기,6816785454,중학교,0,0,0,0,0,0,0,0,0,0,0,355,658,896,921,7115.0,7193.0,7266.0,7669.0,7848.0,7757.0,7582.0,7886.0,8943.0,9750.0,9896.0,10186.0,10853.0,12112.0,12293.0,12358.0,12054.0,11965.0,11363.0,10512.0,9713.0,8995.0,8310.0,7963.0,7700.0
발산중학교,1993-01-11,본교,경기도 고양시 일산서구 주엽동 56,경기도 고양시 일산서구 고봉로 99,경기도교육청,37.66984321,일산서구,126.7696268,경기,9830174863,중학교,1686,1573,1480,1446,1431,1330,1216,1117,1050,943,823,791,839,869,852,0.0,0.0,0.0,0.0,0.0,0.0,0.0,0.0,7898.0,8024.0,7540.0,7059.0,6755.0,7122.0,7048.0,6898.0,6680.0,6540.0,6114.0,5366.0,4744.0,4407.0,4291.0,4149.0,3886.0
온정중학교,1971-04-08,본교,경상북도 울진군 온정면 소태리 799-1,경상북도 울진군 온정면 온정학교길 61,경상북도교육청,36.72653526,울진군,129.3466575,경북,8210753083,중학교,51,50,52,47,52,35,28,14,18,20,15,14,15,15,13,2341.0,2197.0,2034.0,1967.0,1822.0,1642.0,1424.0,1229.0,1163.0,1109.0,1145.0,1087.0,1088.0,1066.0,1071.0,1094.0,1101.0,1057.0,941.0,811.0,743.0,686.0,638.0,587.0,556.0
경안여자중학교,1964-11-13,본교,경상북도 안동시 금곡동 1-3,경상북도 안동시 금곡윗4길 47,경상북도교육청,36.57250005,안동시,128.7231447,경북,1004554927,중학교,670,656,607,583,570,571,537,528,508,480,452,445,452,452,458,5832.0,5675.0,5538.0,5159.0,4712.0,4357.0,4088.0,3905.0,4045.0,4204.0,4421.0,4496.0,4677.0,4839.0,4750.0,4464.0,4299.0,4132.0,3990.0,3462.0,3000.0,2541.0,2331.0,2124.0,1998.0
하남중학교,1993-02-20,본교,부산광역시 사하구 하단동 1181-2,부산광역시 사하구 하신번영로 206,부산광역시교육청,35.09962347,부산광역시 사하구,128.9589257,부산,8362349927,중학교,818,816,776,683,629,573,526,482,464,426,415,406,406,403,389,15158.0,14376.0,13255.0,11931.0,10580.0,9871.0,9233.0,8970.0,8864.0,9125.0,9171.0,9136.0,9257.0,9511.0,9309.0,8794.0,8271.0,7818.0,7159.0,6291.0,5419.0,4681.0,4006.0,3652.0,3401.0
만정중학교,2011-03-01,본교,경기도 안성시 공도읍 만정리 779-1,경기도 안성시 공도읍 송원길 21-6,경기도교육청,37.0086015,안성시,127.1729856,경기,7975747048,중학교,0,0,270,523,810,833,837,814,810,805,827,882,935,942,927,5026.0,5254.0,5344.0,5526.0,5498.0,5523.0,5378.0,5319.0,5377.0,5654.0,5727.0,5671.0,5684.0,5790.0,5679.0,5318.0,4854.0,4521.0,4145.0,3679.0,3280.0,2875.0,2679.0,2521.0,2417.0
휘문중학교,1906-05-01,본교,서울특별시 강남구 대치동 952-1,서울특별시 강남구 역삼로 541,서울특별시교육청,37.50528945,서울특별시 강남구,127.061984,서울,6072372138,중학교,985,976,993,940,897,835,806,808,789,789,782,799,809,828,814,18180.0,18430.0,17340.0,15735.0,13885.0,12978.0,12490.0,12460.0,13165.0,13853.0,13867.0,13810.0,13985.0,14500.0,14215.0,14108.0,13800.0,13371.0,12173.0,10518.0,9145.0,8045.0,7309.0,6556.0,6496.0
소천중학교,1955-05-19,본교,경상북도 봉화군 소천면 현동리 701-10,경상북도 봉화군 소천면 소천로 1237,경상북도교육청,36.94233953,봉화군,129.0006938,경북,4027791261,중학교,35,37,39,46,41,30,23,22,21,15,16,19,15,12,8,1065.0,1019.0,954.0,850.0,745.0,685.0,648.0,636.0,649.0,679.0,693.0,726.0,721.0,743.0,675.0,650.0,600.0,579.0,541.0,501.0,461.0,402.0,319.0,248.0,199.0
풍산중학교,1947-07-15,본교,경상북도 안동시 풍산읍 안교리 320,경상북도 안동시 풍산읍 풍산중앙길 39,경상북도교육청,36.58414665,안동시,128.5665358,경북,3485475957,중학교,98,108,124,133,151,151,131,91,73,61,55,110,158,220,216,5832.0,5675.0,5538.0,5159.0,4712.0,4357.0,4088.0,3905.0,4045.0,4204.0,4421.0,4496.0,4677.0,4839.0,4750.0,4464.0,4299.0,4132.0,3990.0,3462.0,3000.0,2541.0,2331.0,2124.0,1998.0
소현중학교,2002-09-01,본교,경기도 용인시 기흥구 보정동 1170,경기도 용인시 기흥구 만현로133번길 96,경기도교육청,37.30158937,기흥구,127.0937847,경기,2276124775,중학교,810,818,800,736,694,679,625,531,437,441,460,506,584,627,611,0.0,0.0,0.0,0.0,0.0,0.0,0.0,0.0,10806.0,12028.0,12531.0,12608.0,13075.0,13705.0,13292.0,13003.0,12634.0,12298.0,11212.0,9747.0,8635.0,8090.0,7752.0,7426.0,6806.0
무원중학교,1994-09-01,본교,경기도 고양시 덕양구 행신동 695,경기도 고양시 덕양구 무원로 45,경기도교육청,37.6176865,덕양구,126.830582,경기,8577791929,중학교,865,791,718,670,690,680,622,549,563,538,537,509,543,534,484,19352.0,19108.0,17854.0,16221.0,14709.0,13987.0,13224.0,12371.0,12051.0,11912.0,11665.0,11361.0,11273.0,11260.0,10640.0,10430.0,10476.0,10789.0,10443.0,9422.0,8575.0,8234.0,8387.0,8712.0,8679.0
장흥향원중학교,1966-03-07,본교,전라남도 장흥군 장흥읍 건산리 448-1,전라남도 장흥군 장흥읍 못골길 1,전라남도교육청,34.68260537,장흥군,126.9120574,전남,5464263319,중학교,356,359,357,358,369,356,345,319,268,247,191,182,190,210,212,1668.0,1611.0,1488.0,1344.0,1145.0,1021.0,917.0,865.0,828.0,813.0,805.0,754.0,708.0,710.0,722.0,721.0,683.0,600.0,536.0,500.0,542.0,614.0,599.0,525.0,429.0
인천동수중학교,1984-04-10,본교,인천광역시 부평구 부평동 755-45,인천광역시 부평구 동수로 8,인천광역시교육청,37.484253,인천광역시 부평구,126.7194725,인천,1790614902,중학교,976,827,743,642,556,510,468,415,357,321,271,275,264,243,198,22635.0,21935.0,21479.0,20251.0,18913.0,17729.0,16975.0,16415.0,16885.0,17090.0,16859.0,16133.0,15766.0,15708.0,15251.0,15131.0,14814.0,14477.0,13300.0,11958.0,10398.0,8952.0,7541.0,6791.0,6564.0
화정중학교,1995-11-01,본교,경기도 고양시 덕양구 화정동 941,경기도 고양시 덕양구 화신로 343,경기도교육청,37.63491092,덕양구,126.8264796,경기,2816823780,중학교,1658,1579,1422,1386,1340,1263,1164,1082,972,860,757,730,717,714,690,19352.0,19108.0,17854.0,16221.0,14709.0,13987.0,13224.0,12371.0,12051.0,11912.0,11665.0,11361.0,11273.0,11260.0,10640.0,10430.0,10476.0,10789.0,10443.0,9422.0,8575.0,8234.0,8387.0,8712.0,8679.0
동영중학교,1964-03-16,본교,충청남도 청양군 남양면 구룡리 402-1,충청남도 청양군 남양면 금천길 70-36,충청남도교육청,36.40091037,청양군,126.7663426,충남,8325051128,중학교,54,45,44,38,32,25,19,20,22,18,15,12,15,15,11,1220.0,1138.0,1077.0,997.0,884.0,791.0,724.0,687.0,659.0,659.0,629.0,608.0,584.0,593.0,595.0,573.0,546.0,478.0,426.0,366.0,335.0,306.0,286.0,258.0,230.0
영북중학교,1961-06-05,본교,경기도 포천시 영북면 운천리 385-1,경기도 포천시 영북면 영북로 214,경기도교육청,38.09364006,포천시,127.2776573,경기,2900439500,중학교,250,236,220,219,216,186,154,131,114,130,107,121,118,121,111,6325.0,6211.0,5880.0,5466.0,5107.0,4658.0,4380.0,4210.0,4370.0,4367.0,4150.0,3911.0,3740.0,3755.0,3546.0,3347.0,3131.0,3058.0,2943.0,2630.0,2264.0,1971.0,1735.0,1670.0,1594.0
서정중학교,2009-03-01,본교,경기도 고양시 덕양구 행신동 1070,경기도 고양시 덕양구 서정마을로 22,경기도교육청,37.618497,덕양구,126.8497837,경기,7273264706,중학교,219,438,532,585,606,602,577,587,602,569,544,513,547,506,446,19352.0,19108.0,17854.0,16221.0,14709.0,13987.0,13224.0,12371.0,12051.0,11912.0,11665.0,11361.0,11273.0,11260.0,10640.0,10430.0,10476.0,10789.0,10443.0,9422.0,8575.0,8234.0,8387.0,8712.0,8679.0
일산동중학교,1994-11-01,본교,경기도 고양시 일산서구 탄현동 1482,경기도 고양시 일산서구 현중로 48,경기도교육청,37.69537427,일산서구,126.7680679,경기,9840591490,중학교,1366,1338,1194,1113,1015,996,912,840,771,698,631,617,617,611,565,0.0,0.0,0.0,0.0,0.0,0.0,0.0,0.0,7898.0,8024.0,7540.0,7059.0,6755.0,7122.0,7048.0,6898.0,6680.0,6540.0,6114.0,5366.0,4744.0,4407.0,4291.0,4149.0,3886.0
충주여자중학교,1942-04-26,본교,충청북도 충주시 교현동 369-1,충청북도 충주시 예성로 221,충청북도교육청,36.97689631,충주시,127.9339639,충북,2510741353,중학교,854,849,838,827,779,768,698,649,610,589,565,548,540,543,531,8657.0,8262.0,7911.0,7152.0,6371.0,5699.0,5307.0,4990.0,4915.0,4934.0,4930.0,4911.0,4969.0,4990.0,4754.0,4522.0,4356.0,4298.0,4092.0,3817.0,3489.0,3297.0,3096.0,2865.0,2753.0
지도중학교,1997-05-06,본교,경기도 고양시 덕양구 화정동 1134,경기도 고양시 덕양구 성신로 46,경기도교육청,37.62706051,덕양구,126.8340317,경기,3348696172,중학교,1365,1305,1286,1209,1168,1064,940,809,721,649,634,575,571,526,501,19352.0,19108.0,17854.0,16221.0,14709.0,13987.0,13224.0,12371.0,12051.0,11912.0,11665.0,11361.0,11273.0,11260.0,10640.0,10430.0,10476.0,10789.0,10443.0,9422.0,8575.0,8234.0,8387.0,8712.0,8679.0
구월여자중학교,1990-03-01,본교,인천광역시 남동구 구월동 1409-1,인천광역시 남동구 성말로13번길 78,인천광역시교육청,37.44854554,인천광역시 남동구,126.7027392,인천,2697812020,중학교,1150,1028,962,923,946,890,819,932,805,785,732,767,836,891,898,18454.0,17923.0,17214.0,15863.0,14082.0,12478.0,11318.0,10574.0,11011.0,12272.0,13363.0,13784.0,14222.0,14996.0,15042.0,14764.0,14314.0,14136.0,13254.0,12153.0,10965.0,9946.0,8610.0,7434.0,6433.0
포항제철중학교,1979-06-14,본교,경상북도 포항시 남구 지곡동 52,경상북도 포항시 남구 지곡로 150,경상북도교육청,36.02230834,남구,129.3270264,경북,7921914577,중학교,1942,1981,1915,1907,1837,1711,1527,1404,1362,1399,1372,1450,1486,1560,1640,11071.0,10459.0,9833.0,8934.0,7937.0,7242.0,6798.0,6465.0,6460.0,6576.0,6663.0,6800.0,6939.0,7178.0,7044.0,6803.0,6660.0,6380.0,5828.0,5004.0,4269.0,3731.0,3247.0,2914.0,2708.0
덕양중학교,1968-10-15,본교,경기도 고양시 덕양구 화전동 274-3,경기도 고양시 덕양구 중앙로176번길 18-29,경기도교육청,37.60465416,덕양구,126.8717155,경기,3721998512,중학교,151,136,159,150,170,162,190,184,195,221,200,195,178,198,188,19352.0,19108.0,17854.0,16221.0,14709.0,13987.0,13224.0,12371.0,12051.0,11912.0,11665.0,11361.0,11273.0,11260.0,10640.0,10430.0,10476.0,10789.0,10443.0,9422.0,8575.0,8234.0,8387.0,8712.0,8679.0
청운중학교,1955-04-27,본교,경기도 양평군 청운면 용두리 690-4,경기도 양평군 청운면 청운로 28,경기도교육청,37.55334405,양평군,127.711468,경기,3955850124,중학교,54,50,56,56,56,51,56,45,34,36,33,18,17,20,20,2690.0,2474.0,2222.0,1889.0,1708.0,1674.0,1712.0,1827.0,1846.0,1892.0,1902.0,1858.0,1933.0,1979.0,1998.0,1975.0,1898.0,1897.0,1849.0,1767.0,1668.0,1543.0,1497.0,1426.0,1380.0
