학교ID,개방ID,시도명,시도교육청명,학교명,2009,2010,2011,2012,2013,2014,2015,2016,2017,2018,2019,2020,2021,2022,2023,설립일자,소재지지번주소,소재지도로명주소,위도,경도
B000023980,1008023023,강원,강원특별자치도교육청,섬강초등학교,0.0,0.0,0.0,0.0,0.0,0.0,0.0,0.0,0.0,0.0,956.0,1568.0,1242.0,1299.0,1360.0,2019-05-01,강원특별자치도 원주시 지정면 가곡리 1527,강원특별자치도 원주시 지정면 가곡로 91,37.37891073,127.8740436
B000005143,1059736549,강원,강원특별자치도교육청,화동초등학교,58.0,54.0,50.0,44.0,38.0,32.0,34.0,43.0,44.0,44.0,41.0,35.0,31.0,24.0,18.0,1923-07-31,강원특별자치도 정선군 화암면 화암리 380 번지,강원특별자치도 정선군 화암면 그림바위길 66-20,37.33869626,128.7879549
B000005010,1110422253,강원,강원특별자치도교육청,정라초등학교,1269.0,1257.0,1213.0,1164.0,1078.0,1024.0,959.0,898.0,840.0,759.0,709.0,678.0,630.0,567.0,512.0,1941-06-07,강원특별자치도 삼척시 정상동 344,강원특별자치도 삼척시 정상로3길 5,37.44429121,129.1768806
B000004834,1112041771,강원,강원특별자치도교육청,성림초등학교,1292.0,1314.0,1311.0,1349.0,1299.0,1267.0,1202.0,1151.0,1146.0,1115.0,1141.0,1152.0,1029.0,942.0,892.0,2002-09-01,강원특별자치도 춘천시 석사동 868번지,강원특별자치도 춘천시 지석로 47,37.85232013,127.740349
B000005125,1128984749,강원,강원특별자치도교육청,속사초등학교,20.0,21.0,23.0,22.0,25.0,24.0,21.0,27.0,34.0,35.0,49.0,45.0,50.0,48.0,37.0,1942-07-15,강원특별자치도 평창군 용평면 속사리 352번지,강원특별자치도 평창군 용평면 운두령로 100,37.64646041,128.4926047
B000004985,1144289433,강원,강원특별자치도교육청,대포초등학교,88.0,64.0,63.0,60.0,65.0,81.0,80.0,80.0,76.0,53.0,46.0,59.0,64.0,61.0,63.0,1919-04-01,강원특별자치도 속초시 대포동 350 번지,강원특별자치도 속초시 동해대로 3797,38.17372332,128.6031621
B000005227,1154525279,강원,강원특별자치도교육청,대진초등학교,99.0,90.0,79.0,64.0,57.0,53.0,40.0,37.0,35.0,30.0,33.0,31.0,40.0,44.0,42.0,1926-04-01,강원특별자치도 고성군 현내면 대진리 148 번지,강원특별자치도 고성군 현내면 대진3길 15,38.49696274,128.423592
B000004864,1179190337,강원,강원특별자치도교육청,만대초등학교,0.0,0.0,585.0,830.0,917.0,965.0,962.0,916.0,919.0,930.0,842.0,806.0,773.0,772.0,699.0,2011-05-01,강원특별자치도 원주시 무실동 1716-2,강원특별자치도 원주시 만대로 65,37.33941893,127.9202582
B000004873,1180781960,강원,강원특별자치도교육청,평원초등학교,1130.0,1079.0,1007.0,913.0,857.0,755.0,729.0,722.0,756.0,810.0,852.0,823.0,816.0,849.0,856.0,1995-03-15,강원특별자치도 원주시 단계동 814 번지,강원특별자치도 원주시 금불2길 20,37.34968188,127.9317518
B000004836,1202087283,강원,강원특별자치도교육청,남춘천초등학교,875.0,814.0,711.0,646.0,580.0,535.0,511.0,465.0,434.0,410.0,386.0,384.0,408.0,558.0,608.0,1951-10-15,강원특별자치도 춘천시 온의동 550 번지,강원특별자치도 춘천시 충혼길 33,37.86162079,127.7220519
B000004966,1214990854,강원,강원특별자치도교육청,함태초등학교,84.0,87.0,88.0,97.0,94.0,91.0,75.0,81.0,102.0,113.0,121.0,115.0,112.0,103.0,86.0,1961-11-25,강원특별자치도 태백시 소도동 5-5번지,강원특별자치도 태백시 소도길 69,37.13878758,128.976707
B000005081,1216025650,강원,강원특별자치도교육청,유현초등학교,22.0,18.0,15.0,16.0,15.0,11.0,17.0,19.0,15.0,14.0,13.0,9.0,12.0,9.0,12.0,1946-10-14,강원특별자치도 횡성군 서원면 유현리 362-1 번지,강원특별자치도 횡성군 서원면 경강로 711,37.52666161,127.874879
B000005176,1218364000,강원,강원특별자치도교육청,유촌초등학교,77.0,71.0,74.0,71.0,68.0,57.0,48.0,47.0,41.0,43.0,35.0,29.0,29.0,32.0,35.0,1908-04-01,강원특별자치도 화천군 간동면 유촌리 604 번지,강원특별자치도 화천군 간동면 파로호로 935-9,38.05575042,127.7913201
B000004964,1220712006,강원,강원특별자치도교육청,상장초등학교,213.0,212.0,210.0,229.0,201.0,206.0,188.0,189.0,209.0,221.0,224.0,194.0,190.0,170.0,155.0,1977-05-26,강원특별자치도 태백시 황지동 123-1 번지,강원특별자치도 태백시 태백로 1223,37.14934577,128.9935072
B000004995,1261952579,강원,강원특별자치도교육청,광정초등학교,56.0,51.0,46.0,54.0,55.0,49.0,29.0,40.0,38.0,23.0,23.0,20.0,28.0,19.0,25.0,1967-03-20,강원특별자치도 양양군 현북면 하광정리 193 번지,강원특별자치도 양양군 현북면 하조대1길 38,38.01858351,128.7251068
B000004992,1286242127,강원,강원특별자치도교육청,손양초등학교,60.0,55.0,50.0,44.0,31.0,30.0,36.0,40.0,42.0,46.0,48.0,49.0,36.0,29.0,28.0,1934-04-01,강원특별자치도 양양군 손양면 하왕도리 140번지,강원특별자치도 양양군 손양면 손중로 202,38.06030303,128.6429862
B000004881,1392034351,강원,강원특별자치도교육청,우산초등학교,398.0,369.0,309.0,305.0,330.0,332.0,346.0,311.0,283.0,270.0,272.0,235.0,208.0,219.0,226.0,1973-10-02,강원특별자치도 원주시 우산동 우산초등학교,강원특별자치도 원주시 우산초교길 84,37.36960628,127.9326151
B000022527,1435594499,강원,강원특별자치도교육청,사북초등학교,328.0,295.0,255.0,227.0,257.0,252.0,236.0,242.0,234.0,243.0,244.0,228.0,223.0,211.0,203.0,1941-10-01,강원특별자치도 정선군 사북읍 사북리 344-4 번지,강원특별자치도 정선군 사북읍 소금강로 3561,37.228564,128.8342378
B000004837,1439044892,강원,강원특별자치도교육청,소양초등학교,1283.0,1222.0,1158.0,1147.0,1100.0,1062.0,993.0,1011.0,982.0,991.0,974.0,949.0,1003.0,981.0,940.0,1941-11-01,강원특별자치도 춘천시 우두동 282-1 번지,강원특별자치도 춘천시 충열로 134,37.90535836,127.7398864
B000024022,1448900401,강원,강원특별자치도교육청,버들초등학교,0.0,0.0,0.0,0.0,0.0,0.0,0.0,686.0,947.0,1112.0,1165.0,1226.0,1243.0,1204.0,1153.0,2016-04-29,강원특별자치도 원주시 반곡동 1,강원특별자치도 원주시 건강로 80,37.32025989,127.9862701
B000004845,1480489850,강원,강원특별자치도교육청,오동초등학교,50.0,46.0,49.0,48.0,51.0,43.0,39.0,42.0,40.0,58.0,62.0,75.0,86.0,93.0,91.0,1949-04-01,강원특별자치도 춘천시 신북읍 발산리 473-2번지,강원특별자치도 춘천시 신북읍 장본길 74,37.95184042,127.758004
B000005186,1484088301,강원,강원특별자치도교육청,비봉초등학교,357.0,323.0,280.0,264.0,218.0,200.0,193.0,174.0,168.0,157.0,161.0,142.0,141.0,145.0,131.0,1965-03-01,강원특별자치도 양구군 양구읍 하리 43번지,강원특별자치도 양구군 양구읍 관공서로 56,38.11058955,127.9880675
B000004979,1486012518,강원,강원특별자치도교육청,온정초등학교,80.0,74.0,71.0,71.0,67.0,66.0,77.0,77.0,68.0,66.0,62.0,65.0,68.0,78.0,68.0,1951-09-15,강원특별자치도 속초시 노학동 620 번지,강원특별자치도 속초시 온천로 107,38.1899335,128.5539681
B000005112,1490767538,강원,강원특별자치도교육청,미탄초등학교,96.0,94.0,72.0,69.0,56.0,51.0,43.0,37.0,39.0,37.0,37.0,23.0,26.0,28.0,25.0,1933-10-01,강원특별자치도 평창군 미탄면 창리 776-1,강원특별자치도 평창군 미탄면 미탄중앙로 49,37.34208875,128.5006251
B000005012,1528597950,강원,강원특별자치도교육청,호산초등학교,163.0,142.0,131.0,107.0,99.0,88.0,86.0,81.0,77.0,70.0,68.0,57.0,60.0,51.0,47.0,1921-05-20,강원특별자치도 삼척시 원덕읍 호산리 347 번지,강원특별자치도 삼척시 원덕읍 삼척로 462-12,37.17753531,129.3354334
B000005001,1538085460,강원,강원특별자치도교육청,현성초등학교,19.0,29.0,36.0,35.0,22.0,19.0,15.0,15.0,16.0,14.0,11.0,11.0,12.0,12.0,11.0,1934-10-01,강원특별자치도 양양군 현북면 어성전리 530,강원특별자치도 양양군 현북면 어성전길 114,37.95204184,128.6652332
B000004905,1572831869,강원,강원특별자치도교육청,고산초등학교,38.0,33.0,30.0,26.0,25.0,17.0,17.0,24.0,32.0,32.0,44.0,51.0,55.0,60.0,54.0,1943-04-10,강원특별자치도 원주시 호저면 고산리 260,강원특별자치도 원주시 호저면 호저로 873,37.44654061,127.9276932
B000005163,1572859764,강원,강원특별자치도교육청,동송초등학교,933.0,993.0,941.0,890.0,878.0,849.0,787.0,722.0,678.0,677.0,664.0,642.0,633.0,596.0,587.0,1954-07-01,강원특별자치도 철원군 동송읍 이평리 836 번지,강원특별자치도 철원군 동송읍 금학로187번길 16-13,38.20391455,127.216704
B000004825,1617287337,강원,강원특별자치도교육청,효제초등학교,450.0,423.0,338.0,304.0,274.0,269.0,234.0,209.0,200.0,193.0,189.0,160.0,162.0,147.0,135.0,1963-02-12,강원특별자치도 춘천시 효자동 161-2 번지,강원특별자치도 춘천시 효제길 40,37.87091642,127.738179
B000004970,1623643636,강원,강원특별자치도교육청,장성초등학교,178.0,163.0,135.0,108.0,94.0,88.0,97.0,105.0,106.0,105.0,89.0,89.0,83.0,74.0,62.0,1938-04-22,강원특별자치도 태백시 장성동 187-1 번지,강원특별자치도 태백시 보드미길 26,37.10267933,129.0057684
B000004885,1674925327,강원,강원특별자치도교육청,장양초등학교,448.0,376.0,339.0,306.0,279.0,259.0,235.0,213.0,178.0,177.0,156.0,125.0,97.0,92.0,87.0,1947-12-03,강원특별자치도 원주시 태장동 장전길 1983 번지,강원특별자치도 원주시 북원로 2868,37.39858148,127.9532647
B000024259,1707922399,강원,강원특별자치도교육청,장학초등학교,0.0,0.0,0.0,0.0,0.0,0.0,313.0,488.0,617.0,683.0,789.0,840.0,829.0,819.0,821.0,2015-05-01,강원특별자치도 춘천시 동면 장학리 990번지,강원특별자치도 춘천시 동면 춘천로449번길 33,37.895209,127.7522366
B000005076,1770399630,강원,강원특별자치도교육청,청일초등학교,51.0,47.0,38.0,38.0,34.0,31.0,33.0,34.0,27.0,28.0,22.0,21.0,16.0,10.0,9.0,1934-09-24,강원특별자치도 횡성군 청일면 유동리 1005-1,강원특별자치도 횡성군 청일면 청정로 795,37.58131788,128.146834
B000004888,1846746027,강원,강원특별자치도교육청,문막초등학교,608.0,569.0,546.0,487.0,437.0,423.0,413.0,401.0,408.0,418.0,492.0,486.0,443.0,409.0,390.0,1917-05-01,강원특별자치도 원주시 문막읍 건등리 1704 번지,강원특별자치도 원주시 문막읍 건등로 28-11,37.31291674,127.8205042
B000004969,1851055264,강원,강원특별자치도교육청,삼성초등학교,111.0,102.0,86.0,81.0,70.0,63.0,56.0,45.0,44.0,48.0,52.0,55.0,47.0,44.0,30.0,1964-03-14,강원특별자치도 태백시 장성동 32-2 번지,강원특별자치도 태백시 평화길 44,37.097576,129.0235889
B000004968,1870220184,강원,강원특별자치도교육청,태백초등학교,86.0,67.0,71.0,75.0,68.0,66.0,51.0,46.0,40.0,41.0,38.0,35.0,38.0,34.0,32.0,1961-11-25,강원특별자치도 태백시 장성동 207-2 번지,강원특별자치도 태백시 태백로 1811,37.10857841,129.005232
B000005009,1878157913,강원,강원특별자치도교육청,진주초등학교,349.0,296.0,256.0,248.0,199.0,172.0,188.0,184.0,175.0,191.0,196.0,174.0,168.0,157.0,136.0,1946-04-15,강원특별자치도 삼척시 남양동 178 번지,강원특별자치도 삼척시 사직로1길 23,37.43304777,129.1657583
B000004880,1894677102,강원,강원특별자치도교육청,원주초등학교,704.0,594.0,512.0,443.0,391.0,379.0,346.0,331.0,315.0,302.0,266.0,246.0,231.0,213.0,195.0,1896-09-17,강원특별자치도 원주시 봉산동 1120 번지,강원특별자치도 원주시 봉산로 15,37.347842,127.9588477
B000004897,1933063268,강원,강원특별자치도교육청,소초초등학교,59.0,54.0,62.0,61.0,49.0,50.0,48.0,52.0,52.0,57.0,59.0,64.0,63.0,60.0,50.0,1930-11-11,강원특별자치도 원주시 소초면 792번지,강원특별자치도 원주시 소초면 평장안골1길 15,37.41767143,128.0046158
B000005000,1940600275,강원,강원특별자치도교육청,상평초등학교오색분교장,11.0,10.0,14.0,10.0,6.0,9.0,11.0,10.0,7.0,4.0,4.0,3.0,3.0,3.0,7.0,1961-04-01,강원특별자치도 양양군 서면 오색리 307-1 번지,강원특별자치도 양양군 서면 설악로 1173,38.07434202,128.4792502
B000004924,1946212530,강원,강원특별자치도교육청,옥천초등학교,509.0,454.0,404.0,346.0,298.0,256.0,231.0,212.0,185.0,201.0,207.0,193.0,184.0,173.0,161.0,1943-07-06,강원특별자치도 강릉시 옥천동 111번지,강원특별자치도 강릉시 수문길 25,37.75683221,128.9027168
B000004971,2066643178,강원,강원특별자치도교육청,철암초등학교,143.0,129.0,98.0,101.0,100.0,72.0,67.0,59.0,60.0,51.0,42.0,44.0,42.0,33.0,29.0,1941-11-11,인천광역시 남동구 만수동 605-5,강원특별자치도 태백시 동태백로 584,37.12174675,129.0429224
B000004876,2123642802,강원,강원특별자치도교육청,남원주초등학교,1651.0,1628.0,1597.0,1478.0,1372.0,1275.0,1179.0,1084.0,1046.0,1011.0,968.0,854.0,896.0,851.0,788.0,1998-03-01,강원특별자치도 원주시 단구동 1588-2 번지,강원특별자치도 원주시 늘품로 28,37.32275082,127.9509825
B000004960,2147341728,강원,강원특별자치도교육청,천곡초등학교,778.0,679.0,591.0,553.0,528.0,475.0,427.0,392.0,371.0,326.0,300.0,285.0,281.0,268.0,252.0,1993-12-31,강원특별자치도 동해시 천곡동 320-1 번지,강원특별자치도 동해시 동굴로 33,37.5177868,129.1078871
B000004849,2159396648,강원,강원특별자치도교육청,당림초등학교,24.0,19.0,18.0,17.0,16.0,18.0,17.0,13.0,9.0,12.0,13.0,13.0,12.0,11.0,8.0,1935-04-01,강원특별자치도 춘천시 서면 당림리 414-1 번지,강원특별자치도 춘천시 서면 당숲안길 81,37.83784571,127.6081748
B000005216,2160747408,강원,강원특별자치도교육청,광산초등학교,54.0,51.0,51.0,44.0,36.0,31.0,33.0,35.0,35.0,41.0,41.0,40.0,49.0,55.0,62.0,1942-04-10,강원특별자치도 고성군 간성읍 광산리 193 번지,강원특별자치도 고성군 간성읍 진부령로 2427,38.37526383,128.4139175
B000024604,2207606136,강원,강원특별자치도교육청,학성초등학교,998.0,980.0,953.0,898.0,863.0,846.0,771.0,719.0,685.0,654.0,602.0,610.0,592.0,553.0,540.0,1944-05-20,강원특별자치도 원주시 태장동 152-1,강원특별자치도 원주시 치악로 2009-9,37.36064068,127.958829
B000004962,2222723603,강원,강원특별자치도교육청,동해삼육초등학교,177.0,207.0,224.0,209.0,199.0,207.0,206.0,217.0,219.0,196.0,182.0,180.0,187.0,210.0,219.0,1946-04-01,강원특별자치도 동해시 천곡동 566-3 번지,강원특별자치도 동해시 동해대로 5367,37.5220721,129.0997495
B000005181,2304786860,강원,강원특별자치도교육청,상승초등학교봉오분교장,42.0,38.0,46.0,42.0,40.0,43.0,42.0,36.0,30.0,23.0,22.0,11.0,8.0,8.0,8.0,1967-03-01,강원특별자치도 화천군 상서면 봉오리 354 번지,강원특별자치도 화천군 상서면 봉오새싹길 31,38.18838671,127.599983
B000004951,2331170141,강원,강원특별자치도교육청,묵호초등학교,269.0,237.0,212.0,200.0,179.0,166.0,153.0,144.0,143.0,132.0,107.0,94.0,85.0,82.0,90.0,1935-10-07,강원특별자치도 동해시 발한동 318,강원특별자치도 동해시 발한천길 30,37.552301,129.1013302
B000004944,2334238052,강원,강원특별자치도교육청,운양초등학교,24.0,18.0,46.0,67.0,73.0,81.0,92.0,95.0,74.0,69.0,73.0,61.0,65.0,75.0,72.0,1943-07-30,강원특별자치도 강릉시 사천면 판교리 91 번지,강원특별자치도 강릉시 사천면 이설당1길 36,37.83710042,128.8586163
B000005203,2343569993,강원,강원특별자치도교육청,용대초등학교,97.0,94.0,70.0,60.0,44.0,45.0,45.0,44.0,47.0,45.0,38.0,34.0,29.0,30.0,36.0,1937-03-31,강원특별자치도 인제군 북면 용대리 1025-1,강원특별자치도 인제군 북면 미시령로 1031,38.19559876,128.3293941
B000004988,2397735059,강원,강원특별자치도교육청,조산초등학교,101.0,85.0,77.0,73.0,65.0,57.0,55.0,54.0,42.0,39.0,40.0,41.0,42.0,39.0,35.0,1944-04-10,강원특별자치도 양양군 양양읍 조산리 450-5 번지,강원특별자치도 양양군 양양읍 동해대로 3020,38.11371111,128.6323998
B000004894,2411624610,강원,강원특별자치도교육청,신평초등학교,60.0,57.0,57.0,57.0,43.0,45.0,43.0,46.0,52.0,55.0,68.0,86.0,95.0,93.0,75.0,1934-08-20,강원특별자치도 원주시 지정면 신평리 681-3 번지,강원특별자치도 원주시 지정면 신무로 336,37.38491214,127.892352
B000004920,2415572822,강원,강원특별자치도교육청,율곡초등학교,1505.0,1489.0,1477.0,1384.0,1275.0,1212.0,1117.0,1095.0,1105.0,1112.0,1162.0,1004.0,964.0,935.0,923.0,2000-03-01,강원특별자치도 강릉시 교동 1851 번지,강원특별자치도 강릉시 원대로 129,37.76623849,128.8816262
B000004859,2416003584,강원,강원특별자치도교육청,광판초등학교,62.0,62.0,60.0,54.0,57.0,63.0,62.0,54.0,50.0,47.0,43.0,33.0,27.0,37.0,33.0,1936-06-08,강원특별자치도 춘천시 남산면 광판리 628,강원특별자치도 춘천시 남산면 김유정로 159-12,37.73085734,127.6992277
B000004842,2544205129,강원,강원특별자치도교육청,동부초등학교,968.0,885.0,821.0,724.0,633.0,579.0,537.0,521.0,488.0,483.0,491.0,446.0,405.0,383.0,370.0,1994-12-29,강원특별자치도 춘천시 후평동 894 번지,강원특별자치도 춘천시 서부대성로 339,37.87105987,127.754782
B000004998,2619546771,강원,강원특별자치도교육청,강현초등학교,67.0,61.0,60.0,55.0,57.0,59.0,56.0,48.0,49.0,51.0,48.0,54.0,65.0,65.0,58.0,1933-04-01,강원특별자치도 양양군 강현면 정암리 510-1 번지,강원특별자치도 양양군 강현면 진미로12번길 22,38.14966307,128.6039841
B000004900,2624770641,강원,강원특별자치도교육청,흥업초등학교,152.0,145.0,138.0,161.0,177.0,185.0,201.0,209.0,218.0,225.0,224.0,207.0,224.0,257.0,240.0,1934-11-01,강원특별자치도 원주시 흥업면 흥업리 1376 번지,강원특별자치도 원주시 흥업면 사제로 101,37.30696646,127.9084451
B000005037,2676965892,강원,강원특별자치도교육청,삼포초등학교,52.0,50.0,44.0,40.0,40.0,38.0,38.0,41.0,43.0,49.0,51.0,42.0,41.0,31.0,37.0,1955-03-05,강원특별자치도 홍천군 화촌면 내삼포리 59-2,강원특별자치도 홍천군 화촌면 구룡령로 339,37.75658982,127.9757306
B000004917,2686596632,강원,강원특별자치도교육청,경포대초등학교,63.0,58.0,57.0,69.0,59.0,57.0,46.0,59.0,66.0,73.0,78.0,69.0,76.0,74.0,71.0,1967-12-06,강원특별자치도 강릉시 안현동 106-6,강원특별자치도 강릉시 경포로475번길 23-11,37.804858,128.9001388
B000005003,2688482224,강원,강원특별자치도교육청,상평초등학교현서분교장,7.0,5.0,4.0,5.0,6.0,5.0,5.0,4.0,4.0,3.0,3.0,6.0,7.0,6.0,5.0,1942-08-22,강원특별자치도 양양군 서면 서림리 74-1 번지,강원특별자치도 양양군 서면 구룡령로 2125,37.98868541,128.5294814
B000005162,2700800001,강원,강원특별자치도교육청,오덕초등학교,137.0,141.0,128.0,111.0,90.0,100.0,98.0,87.0,90.0,79.0,86.0,77.0,70.0,59.0,39.0,1960-04-06,강원특별자치도 철원군 동송읍 오덕리 517-1 번지,강원특별자치도 철원군 동송읍 오덕로 159,38.22299855,127.2321739
B000004919,2701026380,강원,강원특별자치도교육청,경포초등학교,1172.0,1148.0,1095.0,1002.0,913.0,849.0,772.0,763.0,734.0,747.0,836.0,520.0,469.0,455.0,425.0,2003-10-08,강원특별자치도 강릉시 교동 1797번지,강원특별자치도 강릉시 솔올로 90,37.77000657,128.8798576
B000005201,2728112936,강원,강원특별자치도교육청,귀둔초등학교,33.0,27.0,20.0,18.0,26.0,31.0,28.0,24.0,21.0,25.0,19.0,18.0,24.0,18.0,17.0,1930-04-11,강원특별자치도 인제군 인제읍 귀둔리 676-2 번지,강원특별자치도 인제군 인제읍 점봉산로 51,38.01720494,128.3607942
B000004890,2730734527,강원,강원특별자치도교육청,반계초등학교,48.0,49.0,61.0,61.0,70.0,75.0,73.0,79.0,66.0,61.0,54.0,48.0,39.0,32.0,36.0,1962-02-26,강원특별자치도 원주시 문막읍 반계리 1090 번지,강원특별자치도 원주시 문막읍 원문로 2265,37.29190903,127.7908415
B000005134,2760273158,강원,강원특별자치도교육청,갈래초등학교,58.0,46.0,48.0,48.0,47.0,47.0,46.0,47.0,40.0,41.0,45.0,56.0,55.0,58.0,55.0,1963-03-28,강원특별자치도 정선군 고한읍 고한리 31 번지,강원특별자치도 정선군 고한읍 고한로 300,37.19487669,128.8657343
B000005014,2765112400,강원,강원특별자치도교육청,근덕초등학교,109.0,111.0,104.0,92.0,82.0,90.0,76.0,66.0,65.0,94.0,114.0,119.0,118.0,109.0,118.0,1922-06-10,강원특별자치도 삼척시 근덕면 교가리 676-1,강원특별자치도 삼척시 근덕면 삼척로 3653,37.38092428,129.2244956
B000005123,2855576872,강원,강원특별자치도교육청,신리초등학교,17.0,18.0,20.0,23.0,23.0,37.0,39.0,41.0,39.0,30.0,36.0,35.0,33.0,30.0,19.0,1941-08-24,강원특별자치도 평창군 대화면 신리 574,강원특별자치도 평창군 대화면 하송빈1길 23,37.53767918,128.4574601
B000005058,2863519966,강원,강원특별자치도교육청,서석초등학교청량분교장,26.0,24.0,19.0,16.0,12.0,10.0,8.0,7.0,9.0,15.0,21.0,19.0,21.0,21.0,20.0,1946-11-16,강원특별자치도 홍천군 서석면 청량리 481-1,강원특별자치도 홍천군 서석면 청량로 25,37.68857788,128.191934
B000005124,2914294183,강원,강원특별자치도교육청,면온초등학교,88.0,117.0,146.0,160.0,149.0,118.0,105.0,111.0,91.0,83.0,73.0,44.0,44.0,33.0,45.0,1941-06-20,강원특별자치도 평창군 봉평면 면온리 683-1 번지,강원특별자치도 평창군 봉평면 태기로 493-11,37.56526656,128.349804
B000005200,2932301998,강원,강원특별자치도교육청,원통초등학교,392.0,357.0,349.0,317.0,367.0,357.0,342.0,349.0,297.0,303.0,299.0,310.0,293.0,262.0,248.0,1954-04-01,강원특별자치도 인제군 북면 원통리 737 번지,강원특별자치도 인제군 북면 원통로 129,38.12033476,128.2010606
B000004980,2945361673,강원,강원특별자치도교육청,소야초등학교,787.0,691.0,611.0,578.0,509.0,471.0,437.0,403.0,399.0,393.0,374.0,360.0,346.0,345.0,317.0,2002-10-04,강원특별자치도 속초시 노학동 1-36,강원특별자치도 속초시 배움터길 42,38.19964843,128.5667195
B000004990,2954279482,강원,강원특별자치도교육청,상평초등학교,57.0,52.0,46.0,49.0,58.0,57.0,58.0,52.0,57.0,50.0,49.0,50.0,55.0,46.0,32.0,1934-10-10,강원특별자치도 양양군 서면 상평리 18 번지,강원특별자치도 양양군 서면 물윗구미길 25,38.07341515,128.5859389
B000004895,3029724657,강원,강원특별자치도교육청,교학초등학교,24.0,24.0,27.0,29.0,29.0,24.0,23.0,23.0,27.0,32.0,34.0,31.0,39.0,43.0,29.0,1947-04-01,강원특별자치도 원주시 소초면 학곡리 667 번지,강원특별자치도 원주시 소초면 토동길 20,37.43538093,128.0553274
B000005051,3036984324,강원,강원특별자치도교육청,창촌초등학교,98.0,104.0,95.0,75.0,65.0,67.0,71.0,60.0,60.0,62.0,48.0,43.0,39.0,42.0,38.0,1929-04-01,강원특별자치도 홍천군 내면 창촌리 1624-5 번지,강원특별자치도 홍천군 내면 구룡령로 5198,37.76852978,128.3886481
B000005132,3065867960,강원,강원특별자치도교육청,벽탄초등학교,28.0,19.0,17.0,15.0,21.0,22.0,25.0,25.0,19.0,23.0,24.0,21.0,33.0,28.0,29.0,1931-07-07,강원특별자치도 정선군 정선읍 용탄리 697-1 번지,강원특별자치도 정선군 정선읍 벽탄길 32,37.3947319,128.601871
B000004986,3131193161,강원,강원특별자치도교육청,설악초등학교,60.0,53.0,44.0,37.0,35.0,31.0,37.0,40.0,53.0,54.0,56.0,56.0,61.0,66.0,59.0,1940-04-01,강원특별자치도 속초시 설악동 358번지,강원특별자치도 속초시 청봉로 51,38.16405799,128.5402664
B000005174,3172460019,강원,강원특별자치도교육청,산양초등학교,84.0,78.0,85.0,41.0,32.0,25.0,23.0,16.0,21.0,19.0,19.0,20.0,25.0,35.0,40.0,1959-04-15,강원특별자치도 화천군 상서면 산양리 707 번지,강원특별자치도 화천군 상서면 영서로 7778,38.21257979,127.6631402
B000004955,3194368839,강원,강원특별자치도교육청,북삼초등학교,362.0,316.0,282.0,258.0,262.0,308.0,319.0,337.0,336.0,370.0,380.0,388.0,369.0,398.0,385.0,1946-02-07,강원특별자치도 동해시 지흥동 103,강원특별자치도 동해시 지양길 77,37.49565579,129.1009681
B000005119,3218167543,강원,강원특별자치도교육청,계촌초등학교,47.0,42.0,47.0,57.0,51.0,58.0,44.0,38.0,34.0,30.0,32.0,29.0,33.0,36.0,36.0,1937-09-19,강원특별자치도 평창군 방림면 계촌리 1478-2 번지,강원특별자치도 평창군 방림면 계촌길 63,37.45243883,128.3047597
B000005030,3226394951,강원,강원특별자치도교육청,석화초등학교,648.0,592.0,535.0,474.0,395.0,338.0,294.0,272.0,272.0,266.0,282.0,291.0,297.0,317.0,323.0,1962-06-13,강원특별자치도 홍천군 홍천읍 갈마곡리 431,강원특별자치도 홍천군 홍천읍 석화안길1길 12,37.69725595,127.8928843
B000005004,3237258970,강원,강원특별자치도교육청,상평초등학교공수전분교장,20.0,20.0,19.0,5.0,2.0,2.0,7.0,7.0,7.0,7.0,8.0,9.0,9.0,8.0,6.0,1951-12-20,강원특별자치도 양양군 서면 공수전리 31-4 번지,강원특별자치도 양양군 서면 구룡령로 2855,38.0418679,128.5572842
B000005022,3237437605,강원,강원특별자치도교육청,흥전초등학교,106.0,97.0,77.0,66.0,60.0,58.0,49.0,42.0,40.0,36.0,34.0,31.0,30.0,25.0,25.0,1964-03-14,강원특별자치도 삼척시 도계읍 흥전리 60-9 번지,강원특별자치도 삼척시 도계읍 흥전안길 137,37.21385827,129.0431938
B000005071,3244607150,강원,강원특별자치도교육청,우천초등학교,154.0,138.0,126.0,119.0,106.0,84.0,82.0,68.0,71.0,65.0,71.0,64.0,61.0,77.0,63.0,1930-04-01,강원특별자치도 횡성군 우천면 우항리 628 번지,강원특별자치도 횡성군 우천면 수남로 319,37.46116506,128.0615769
B000004933,3281801879,강원,강원특별자치도교육청,신영초등학교,75.0,58.0,61.0,55.0,52.0,46.0,48.0,45.0,34.0,30.0,34.0,36.0,32.0,31.0,40.0,1966-03-21,강원특별자치도 강릉시 주문진읍 향호리 1187-7,강원특별자치도 강릉시 주문진읍 주문북로 160,37.90706843,128.8232652
B000005197,3301814377,강원,강원특별자치도교육청,인제남초등학교,364.0,331.0,322.0,292.0,259.0,261.0,242.0,236.0,216.0,204.0,208.0,211.0,206.0,244.0,246.0,1965-04-01,강원특별자치도 인제군 인제읍 남북리 210번지,강원특별자치도 인제군 인제읍 인제로156번길 34,38.06409774,128.1706146
B000005226,3343312978,강원,강원특별자치도교육청,대진초등학교명파분교장,19.0,17.0,13.0,12.0,9.0,9.0,12.0,11.0,12.0,7.0,4.0,6.0,6.0,6.0,1.0,1959-04-25,강원특별자치도 고성군 현내면 명파리 264 번지,강원특별자치도 고성군 현내면 금강산로 840,38.54210112,128.4010222
B000004932,3383866369,강원,강원특별자치도교육청,주영초등학교,115.0,87.0,78.0,66.0,68.0,75.0,73.0,85.0,79.0,88.0,98.0,97.0,100.0,108.0,122.0,1942-04-05,강원특별자치도 강릉시 주문진읍 주문리 461,강원특별자치도 강릉시 주문진읍 약수동길 15-12,37.89800326,128.8260432
B000004936,3398578286,강원,강원특별자치도교육청,금광초등학교,66.0,67.0,80.0,84.0,78.0,78.0,68.0,70.0,89.0,95.0,89.0,82.0,85.0,66.0,58.0,1944-06-24,강원특별자치도 강릉시 구정면 금광리 858-3 번지,강원특별자치도 강릉시 구정면 금평로 575,37.70388258,128.9135547
B000005202,3408586144,강원,강원특별자치도교육청,어론초등학교,78.0,78.0,80.0,72.0,86.0,95.0,105.0,121.0,134.0,123.0,126.0,117.0,85.0,76.0,63.0,1933-04-01,강원특별자치도 인제군 남면 어론리 686-1,강원특별자치도 인제군 남면 설악로 198,37.93211244,128.0617602
B000005224,3425953447,강원,강원특별자치도교육청,아야진초등학교,88.0,68.0,55.0,43.0,44.0,45.0,51.0,49.0,35.0,41.0,53.0,71.0,85.0,87.0,94.0,1960-11-25,강원특별자치도 고성군 토성면 아야진리 200 번지,강원특별자치도 고성군 토성면 아야진길 15,38.27348966,128.5493078
B000004993,3429311573,강원,강원특별자치도교육청,송포초등학교,25.0,31.0,27.0,17.0,13.0,11.0,11.0,8.0,11.0,23.0,17.0,22.0,29.0,27.0,30.0,1953-09-30,강원특별자치도 양양군 손양면 송전리 22-1 번지,강원특별자치도 양양군 손양면 동명로 321-11,38.08956539,128.6565325
B000004928,3441589653,강원,강원특별자치도교육청,강릉초등학교,1040.0,988.0,880.0,757.0,667.0,631.0,559.0,546.0,534.0,565.0,554.0,510.0,498.0,482.0,476.0,1896-09-17,강원특별자치도 강릉시 홍제동 38,강원특별자치도 강릉시 토성로 103,37.75367806,128.887751
B000004862,3481233239,강원,강원특별자치도교육청,남산초등학교서천분교장,7.0,4.0,2.0,7.0,14.0,8.0,11.0,10.0,13.0,14.0,13.0,12.0,11.0,8.0,5.0,1938-06-05,강원특별자치도 춘천시 남산면 백양리 431-2 번지,강원특별자치도 춘천시 남산면 서백길 152,37.8353939,127.5553344
B000005075,3488190352,강원,강원특별자치도교육청,갑천초등학교,28.0,20.0,17.0,14.0,14.0,14.0,18.0,15.0,19.0,24.0,22.0,18.0,17.0,14.0,11.0,1923-11-13,강원특별자치도 횡성군 갑천면 매일리 705-1 번지,강원특별자치도 횡성군 갑천면 청정로 262,37.55755136,128.107661
B000004875,3529679834,강원,강원특별자치도교육청,구곡초등학교,1165.0,1193.0,1187.0,1125.0,1084.0,1058.0,1022.0,1017.0,1005.0,1062.0,1027.0,927.0,816.0,739.0,688.0,2007-05-07,강원특별자치도 원주시 단구동 982-1,강원특별자치도 원주시 늘품로 64,37.32488379,127.952479
B000004833,3554268717,강원,강원특별자치도교육청,봄내초등학교,1714.0,1580.0,1462.0,1372.0,1240.0,1131.0,1047.0,1000.0,970.0,935.0,916.0,909.0,673.0,601.0,548.0,2000-03-01,강원특별자치도 춘천시 석사동 815 번지,강원특별자치도 춘천시 퇴계로 220-10,37.85564001,127.7419242
B000005113,3585561513,강원,강원특별자치도교육청,대화초등학교,236.0,213.0,199.0,177.0,153.0,148.0,138.0,123.0,106.0,117.0,113.0,102.0,101.0,102.0,101.0,1920-10-08,강원특별자치도 평창군 대화면 대화리 971 번지,강원특별자치도 평창군 대화면 대화중앙로 92-9,37.49794605,128.4567574
B000004974,3626116514,강원,강원특별자치도교육청,황지중앙초등학교,472.0,460.0,447.0,436.0,430.0,475.0,463.0,462.0,465.0,474.0,467.0,420.0,379.0,337.0,308.0,1964-03-14,강원특별자치도 태백시 황지동 274-10,강원특별자치도 태백시 태백로 810,37.1803949,128.9841425
B000004884,3672209739,강원,강원특별자치도교육청,태장초등학교,1079.0,1059.0,1022.0,967.0,883.0,918.0,938.0,891.0,856.0,862.0,820.0,719.0,683.0,629.0,572.0,1953-04-13,강원특별자치도 원주시 태장동 1002 번지,강원특별자치도 원주시 현충로 260,37.37621832,127.9514457
B000004953,3686224818,강원,강원특별자치도교육청,망상초등학교,64.0,70.0,64.0,62.0,62.0,66.0,72.0,64.0,60.0,60.0,69.0,68.0,67.0,66.0,64.0,1941-07-22,강원특별자치도 동해시 망상동 353-1 번지,강원특별자치도 동해시 동해대로 6251,37.59086742,129.0902466
B000005083,3701457619,강원,강원특별자치도교육청,강림초등학교,52.0,46.0,51.0,44.0,50.0,48.0,39.0,35.0,30.0,32.0,27.0,23.0,25.0,35.0,28.0,1933-10-02,강원특별자치도 횡성군 강림면 강림리 1562 번지,강원특별자치도 횡성군 강림면 태종로강림4길 11,37.35840671,128.1200151
B000005096,3731924295,강원,강원특별자치도교육청,주천초등학교,174.0,164.0,140.0,126.0,105.0,106.0,105.0,91.0,91.0,86.0,79.0,62.0,66.0,62.0,61.0,1919-11-01,강원특별자치도 영월군 주천면 주천리 1382 번지,강원특별자치도 영월군 주천면 주천로 89,37.27120713,128.2682992
B000004948,3753233373,강원,강원특별자치도교육청,왕산초등학교,20.0,19.0,14.0,10.0,19.0,19.0,22.0,27.0,38.0,37.0,36.0,47.0,44.0,50.0,42.0,1936-09-25,강원특별자치도 강릉시 왕산면 도마리 595번지,강원특별자치도 강릉시 왕산면 백두대간로 2011-8,37.67359898,128.8368585
B000005015,3830754578,강원,강원특별자치도교육청,맹방초등학교,43.0,60.0,63.0,60.0,54.0,64.0,61.0,65.0,61.0,63.0,65.0,69.0,73.0,77.0,72.0,1946-12-12,강원특별자치도 삼척시 근덕면 상맹방리 171-1 번지,강원특별자치도 삼척시 근덕면 삼척로 3884-4,37.39852676,129.2127768
B000005198,3835414648,강원,강원특별자치도교육청,인제초등학교,275.0,280.0,272.0,246.0,254.0,247.0,246.0,238.0,250.0,242.0,246.0,253.0,302.0,335.0,323.0,1912-04-01,강원특별자치도 인제군 인제읍 합강리 316,강원특별자치도 인제군 인제읍 인제로277번길 20,38.07477612,128.1783516
B000005194,3845070600,강원,강원특별자치도교육청,방산초등학교,90.0,88.0,71.0,64.0,63.0,43.0,43.0,28.0,32.0,23.0,22.0,24.0,20.0,20.0,16.0,1918-04-01,강원특별자치도 양구군 방산면 현리 50-4번지,강원특별자치도 양구군 방산면 평화로 5121-7,38.20935773,127.9435152
B000004830,3860784053,강원,강원특별자치도교육청,신남초등학교,530.0,491.0,461.0,435.0,386.0,402.0,368.0,351.0,373.0,352.0,335.0,312.0,312.0,294.0,262.0,1934-10-10,강원특별자치도 춘천시 칠전동 149 번지,강원특별자치도 춘천시 칠전서길 37,37.84209461,127.711758
B000005023,3884926080,강원,강원특별자치도교육청,하장초등학교,38.0,38.0,31.0,28.0,22.0,15.0,14.0,10.0,13.0,15.0,16.0,14.0,15.0,18.0,12.0,1936-06-30,강원특별자치도 삼척시 하장면 광동리 76-1 번지,강원특별자치도 삼척시 하장면 하장길 84,37.34777333,128.9443039
B000005005,3922843933,강원,강원특별자치도교육청,삼척중앙초등학교,32.0,30.0,22.0,18.0,21.0,29.0,30.0,29.0,29.0,31.0,27.0,17.0,18.0,85.0,93.0,1969-03-05,강원특별자치도 삼척시 갈천동 183,강원특별자치도 삼척시 새천년도로 630-121,37.46637688,129.1612278
B000004868,3925336241,강원,강원특별자치도교육청,명륜초등학교,1186.0,1016.0,1031.0,931.0,845.0,808.0,742.0,723.0,660.0,629.0,558.0,462.0,450.0,414.0,383.0,1955-06-05,강원특별자치도 원주시 개운동 389 번지,강원특별자치도 원주시 행구로 25,37.34202301,127.9592728
B000005050,3947468221,강원,강원특별자치도교육청,율전초등학교,33.0,25.0,18.0,17.0,10.0,11.0,13.0,15.0,18.0,13.0,14.0,17.0,15.0,11.0,10.0,1944-04-30,강원특별자치도 홍천군 내면 율전리 1489-5 번지,강원특별자치도 홍천군 내면 방내로 12,37.74980024,128.3077378
B000004838,3949479341,강원,강원특별자치도교육청,남부초등학교,1459.0,1377.0,1297.0,1278.0,1183.0,1079.0,1068.0,1018.0,1004.0,980.0,997.0,1054.0,784.0,736.0,657.0,1996-09-01,강원특별자치도 춘천시 퇴계동 915 번지,강원특별자치도 춘천시 춘주로 159,37.8590161,127.7261391
B000005036,3995764076,강원,강원특별자치도교육청,구송초등학교,47.0,42.0,36.0,39.0,34.0,45.0,39.0,41.0,41.0,37.0,35.0,25.0,23.0,18.0,16.0,1947-03-20,강원특별자치도 홍천군 화촌면 송정리 63-1 번지,강원특별자치도 홍천군 화촌면 홍천로 1105,37.73843183,127.9384056
B000005220,3999563157,강원,강원특별자치도교육청,공현진초등학교,44.0,46.0,36.0,31.0,48.0,44.0,38.0,41.0,42.0,42.0,38.0,39.0,48.0,52.0,54.0,1942-04-01,강원특별자치도 고성군 죽왕면 공현진리 334 번지,강원특별자치도 고성군 죽왕면 공현진한옥길 49,38.35457469,128.5076301
B000004878,4006244003,강원,강원특별자치도교육청,서원주초등학교,1551.0,1412.0,1309.0,1228.0,1143.0,1044.0,1002.0,940.0,887.0,849.0,803.0,733.0,668.0,652.0,710.0,2000-09-01,강원특별자치도 원주시 명륜동 844 번지,강원특별자치도 원주시 남원로469번길 61,37.32716911,127.939871
B000005126,4033107399,강원,강원특별자치도교육청,거문초등학교,43.0,32.0,28.0,30.0,28.0,30.0,29.0,26.0,27.0,30.0,36.0,46.0,38.0,34.0,29.0,1947-07-31,강원특별자치도 평창군 진부면 거문리 240 번지,강원특별자치도 평창군 진부면 거문길 24,37.60466097,128.531881
B000004860,4040999531,강원,강원특별자치도교육청,추곡초등학교,12.0,12.0,11.0,12.0,9.0,8.0,9.0,11.0,11.0,11.0,14.0,13.0,10.0,8.0,7.0,1963-03-01,강원특별자치도 춘천시 북산면 추곡리 562 번지,강원특별자치도 춘천시 북산면 북산로 34,38.024467,127.8822914
B000005109,4051855504,강원,강원특별자치도교육청,주진초등학교,38.0,36.0,46.0,45.0,45.0,45.0,38.0,35.0,31.0,25.0,23.0,17.0,18.0,14.0,13.0,1968-03-23,강원특별자치도 평창군 평창읍 주진리 504-2 번지,강원특별자치도 평창군 평창읍 서동로 2051-11,37.39353784,128.4047391
B000005208,4088873207,강원,강원특별자치도교육청,상남초등학교,73.0,66.0,68.0,55.0,50.0,49.0,43.0,40.0,37.0,34.0,26.0,23.0,23.0,39.0,55.0,1937-04-10,강원특별자치도 인제군 상남면 상남리 107 번지,강원특별자치도 인제군 상남면 내린천로 2548,37.87306566,128.2606988
B000004892,4108454942,강원,강원특별자치도교육청,부론초등학교,67.0,53.0,43.0,48.0,49.0,55.0,47.0,50.0,57.0,51.0,46.0,40.0,38.0,33.0,26.0,1920-12-06,강원특별자치도 원주시 부론면 1535 번지,강원특별자치도 원주시 부론면 법천시장길 58,37.20796043,127.7487502
B000005133,4141154289,강원,강원특별자치도교육청,봉양초등학교,138.0,127.0,113.0,103.0,89.0,82.0,86.0,101.0,108.0,109.0,118.0,119.0,120.0,105.0,95.0,1976-02-10,강원특별자치도 정선군 정선읍 봉양리 1-10 번지,강원특별자치도 정선군 정선읍 녹송7길 1,37.38603426,128.6689908
B000005111,4161436617,강원,강원특별자치도교육청,평창초등학교,502.0,458.0,452.0,414.0,400.0,383.0,402.0,383.0,387.0,361.0,369.0,343.0,316.0,292.0,264.0,1912-03-06,강원특별자치도 평창군 평창읍 하리 94 번지,강원특별자치도 평창군 평창읍 송학로 71,37.3701109,128.392364
B000005151,4223504543,강원,강원특별자치도교육청,남선초등학교남창분교장,6.0,7.0,9.0,9.0,5.0,5.0,5.0,6.0,7.0,6.0,9.0,9.0,10.0,6.0,6.0,1949-06-10,강원특별자치도 정선군 남면 낙동리 220-3,강원특별자치도 정선군 남면 광락로 22,37.324049,128.7138401
B000004853,4233860015,강원,강원특별자치도교육청,만천초등학교,311.0,583.0,784.0,907.0,1006.0,1130.0,1091.0,1100.0,1134.0,1147.0,1113.0,1080.0,1021.0,896.0,834.0,1949-07-30,강원특별자치도 춘천시 동면 만천리 807-5 번지,강원특별자치도 춘천시 동면 후석로326번길 89,37.884273,127.7574018
B000022519,4246445477,강원,강원특별자치도교육청,봉대초등학교,56.0,56.0,45.0,49.0,72.0,170.0,303.0,366.0,541.0,724.0,764.0,841.0,879.0,902.0,998.0,1946-12-19,강원특별자치도 원주시 반곡동 301 번지,강원특별자치도 원주시 혁신로 300,37.334001,127.9880547
B000005031,4260778665,강원,강원특별자치도교육청,주봉초등학교,20.0,23.0,27.0,36.0,36.0,34.0,41.0,41.0,64.0,62.0,73.0,91.0,82.0,82.0,69.0,1953-04-10,강원특별자치도 홍천군 홍천읍 결운리 281,강원특별자치도 홍천군 홍천읍 두루봉1길 16,37.70896288,127.9139632
B000004983,4306826293,강원,강원특별자치도교육청,청봉초등학교,626.0,638.0,661.0,639.0,606.0,606.0,571.0,614.0,635.0,661.0,701.0,743.0,786.0,809.0,763.0,2007-04-13,강원특별자치도 속초시 조양동 1540-2번지,강원특별자치도 속초시 조양로118번길 9,38.18838223,128.587002
B000005131,4307862162,강원,강원특별자치도교육청,정선초등학교,657.0,632.0,593.0,557.0,520.0,486.0,456.0,452.0,458.0,421.0,438.0,406.0,394.0,366.0,317.0,1912-06-01,강원특별자치도 정선군 정선읍 306 번지,강원특별자치도 정선군 정선읍 비봉로 15,37.38121807,128.659662
B000005169,4414580821,강원,강원특별자치도교육청,와수초등학교,383.0,342.0,302.0,271.0,250.0,230.0,208.0,206.0,192.0,190.0,171.0,160.0,172.0,159.0,165.0,1955-08-06,강원특별자치도 철원군 서면 와수리 1137-2,강원특별자치도 철원군 서면 와수로 119,38.23572423,127.4351403
B000004844,4416769504,강원,강원특별자치도교육청,천전초등학교,85.0,78.0,82.0,74.0,80.0,79.0,93.0,110.0,110.0,102.0,96.0,107.0,114.0,91.0,88.0,1927-04-01,강원특별자치도 춘천시 신북읍 율문리 295 번지,강원특별자치도 춘천시 신북읍 율문1길 16-9,37.92746577,127.7461205
B000005072,4432624578,강원,강원특별자치도교육청,정금초등학교,28.0,20.0,17.0,18.0,17.0,24.0,25.0,30.0,28.0,29.0,24.0,22.0,26.0,24.0,25.0,1934-09-30,강원특별자치도 횡성군 우천면 정금리 507-4 번지,강원특별자치도 횡성군 우천면 경강로 3276,37.50552162,128.1048898
B000004981,4452240645,강원,강원특별자치도교육청,청대초등학교,1081.0,1017.0,957.0,902.0,843.0,799.0,743.0,710.0,658.0,634.0,612.0,621.0,701.0,723.0,746.0,1997-04-01,강원특별자치도 속초시 조양동 551-1 번지,강원특별자치도 속초시 소평로 175,38.19113174,128.5765618
B000005215,4468984603,강원,강원특별자치도교육청,기린초등학교진동분교장,7.0,7.0,6.0,3.0,5.0,4.0,2.0,5.0,7.0,5.0,7.0,6.0,6.0,4.0,7.0,1961-03-01,강원특별자치도 인제군 기린면 진동리 2리2반 133-3번지,강원특별자치도 인제군 기린면 설피밭길 432,38.018108,128.474611
B000005043,4471675932,강원,강원특별자치도교육청,협신초등학교,46.0,41.0,41.0,47.0,46.0,43.0,42.0,42.0,43.0,40.0,35.0,36.0,29.0,37.0,27.0,1954-04-01,강원특별자치도 홍천군 남면 시동리 1241 번지,강원특별자치도 홍천군 남면 시동안로 89,37.595671,127.819478
B000005070,4528341889,강원,강원특별자치도교육청,횡성초등학교,669.0,625.0,625.0,614.0,571.0,546.0,542.0,521.0,486.0,478.0,501.0,483.0,462.0,467.0,454.0,1911-11-03,강원특별자치도 횡성군 횡성읍 읍하리 176-1,강원특별자치도 횡성군 횡성읍 교항북로 35,37.48745216,127.979699
B000005074,4606719791,강원,강원특별자치도교육청,둔내초등학교,228.0,204.0,200.0,193.0,217.0,234.0,232.0,227.0,205.0,205.0,185.0,171.0,166.0,150.0,148.0,1930-04-01,강원특별자치도 횡성군 둔내면 자포곡리 392 번지,강원특별자치도 횡성군 둔내면 둔내로47번길 6,37.51342678,128.2179229
B000005140,4621675252,강원,강원특별자치도교육청,여량초등학교,88.0,93.0,80.0,68.0,66.0,52.0,45.0,45.0,47.0,47.0,44.0,43.0,40.0,39.0,30.0,1933-03-05,강원특별자치도 정선군 여량면 여량리 127번지,강원특별자치도 정선군 여량면 서동로 2950,37.47134571,128.7277245
B000004929,4628739118,강원,강원특별자치도교육청,한솔초등학교,782.0,775.0,737.0,696.0,645.0,615.0,637.0,606.0,583.0,549.0,519.0,481.0,442.0,372.0,335.0,1995-07-15,강원특별자치도 강릉시 포남동 1296 번지,강원특별자치도 강릉시 하평2길 45,37.77444621,128.9141358
B000005193,4645737886,강원,강원특별자치도교육청,임당초등학교,78.0,81.0,75.0,85.0,88.0,53.0,61.0,49.0,42.0,30.0,29.0,38.0,40.0,49.0,52.0,1921-03-25,강원특별자치도 양구군 동면 임당리 564 번지,강원특별자치도 양구군 동면 금강산로 1673,38.20110769,128.0421702
B000005189,4655914187,강원,강원특별자치도교육청,죽리초등학교,73.0,95.0,95.0,84.0,71.0,77.0,101.0,80.0,86.0,81.0,85.0,86.0,87.0,90.0,85.0,1939-03-01,강원특별자치도 양구군 국토정중앙면 죽리 죽리 341-2 번지,강원특별자치도 양구군 국토정중앙면 춘양로 2726,38.07012862,127.9937958
B000005191,4677632033,강원,강원특별자치도교육청,용하초등학교,97.0,90.0,80.0,78.0,63.0,57.0,56.0,54.0,49.0,52.0,49.0,41.0,36.0,37.0,48.0,1931-03-31,강원특별자치도 양구군 국토정중앙면 용하리 406 번지,강원특별자치도 양구군 국토정중앙면 정중앙로 624-7,38.10953368,128.0360735
B000005069,4754929542,강원,강원특별자치도교육청,성북초등학교,610.0,646.0,607.0,547.0,526.0,544.0,526.0,504.0,500.0,506.0,501.0,458.0,412.0,408.0,396.0,1968-03-01,강원특별자치도 횡성군 횡성읍 읍상리 82번지,강원특별자치도 횡성군 횡성읍 성북로 10,37.49023468,127.9918713
B000005229,4761960685,강원,강원특별자치도교육청,인흥초등학교,78.0,74.0,69.0,66.0,58.0,52.0,45.0,46.0,55.0,53.0,52.0,52.0,53.0,53.0,56.0,1940-11-15,강원특별자치도 고성군 토성면 인흥리 180번지,강원특별자치도 고성군 토성면 인흥1길 26,38.23702574,128.5511905
B000005205,4785221338,강원,강원특별자치도교육청,한계초등학교,25.0,23.0,22.0,17.0,16.0,20.0,40.0,55.0,51.0,58.0,57.0,51.0,54.0,60.0,54.0,1955-05-31,강원특별자치도 인제군 북면 한계리 1044 번지,강원특별자치도 인제군 북면 한계1길 33,38.14045235,128.2577083
B000005084,4796155631,강원,강원특별자치도교육청,안흥초등학교덕천분교장,9.0,11.0,13.0,8.0,8.0,10.0,10.0,9.0,8.0,7.0,8.0,11.0,9.0,8.0,4.0,1948-08-07,강원특별자치도 횡성군 안흥면 소사리 588-1,강원특별자치도 횡성군 안흥면 덕송로 23,37.464673,128.153944
B000004975,4809579551,강원,강원특별자치도교육청,태서초등학교,143.0,132.0,116.0,73.0,60.0,60.0,65.0,61.0,67.0,75.0,72.0,67.0,60.0,53.0,43.0,1982-04-10,강원특별자치도 태백시 황지동 274-724 번지,강원특별자치도 태백시 태백로 802,37.18003577,128.9824439
B000005154,4988195359,강원,강원특별자치도교육청,신철원초등학교,681.0,696.0,656.0,604.0,580.0,524.0,476.0,463.0,417.0,398.0,383.0,378.0,378.0,397.0,386.0,1954-06-30,강원특별자치도 철원군 갈말읍 지포리 7 번지,강원특별자치도 철원군 갈말읍 명성로139번안길 45,38.14752189,127.3055544
B000004879,5015151560,강원,강원특별자치도교육청,치악초등학교,857.0,753.0,663.0,593.0,526.0,468.0,411.0,375.0,334.0,295.0,272.0,230.0,229.0,322.0,356.0,1992-03-12,강원특별자치도 원주시 명륜동 709,강원특별자치도 원주시 한지공원길 77,37.33161621,127.9394333
B000005148,5054148733,강원,강원특별자치도교육청,정선초등학교가수분교장,7.0,6.0,4.0,5.0,10.0,7.0,8.0,4.0,6.0,7.0,6.0,6.0,8.0,6.0,5.0,2002-09-01,강원특별자치도 정선군 정선읍 가수리 193번지,강원특별자치도 정선군 정선읍 수미길 7,37.314715,128.6278942
B000004908,5199273943,강원,강원특별자치도교육청,비두초등학교,20.0,19.0,15.0,11.0,13.0,10.0,15.0,18.0,21.0,31.0,30.0,27.0,29.0,25.0,21.0,1947-09-01,강원특별자치도 원주시 문막읍 비두리 401번지,강원특별자치도 원주시 문막읍 귀문로 1070,37.26190381,127.8348305
B000005204,5217901349,강원,강원특별자치도교육청,월학초등학교,26.0,23.0,20.0,16.0,10.0,10.0,24.0,21.0,19.0,21.0,21.0,19.0,18.0,17.0,19.0,1954-07-20,강원특별자치도 인제군 북면 월학리 162 번지,강원특별자치도 인제군 북면 금강로 732,38.17074712,128.2093385
B000005182,5221851706,강원,강원특별자치도교육청,광덕초등학교,29.0,39.0,45.0,29.0,25.0,30.0,43.0,48.0,62.0,52.0,42.0,42.0,51.0,54.0,55.0,1958-04-08,강원특별자치도 화천군 사내면 광덕리 329-2 번지,강원특별자치도 화천군 사내면 포화로 817,38.06755874,127.4950837
B000004901,5313675522,강원,강원특별자치도교육청,귀래초등학교,60.0,44.0,39.0,43.0,36.0,35.0,41.0,57.0,73.0,75.0,65.0,59.0,62.0,53.0,40.0,1930-11-09,강원특별자치도 원주시 귀래면 운남리 940-1,강원특별자치도 원주시 귀래면 북원로 89,37.16916835,127.8836318
B000004871,5414055049,강원,강원특별자치도교육청,단계초등학교,649.0,656.0,612.0,574.0,579.0,567.0,660.0,647.0,677.0,721.0,695.0,688.0,663.0,657.0,623.0,1963-12-12,강원특별자치도 원주시 단계동 82,강원특별자치도 원주시 북원로 2387,37.35920567,127.9359535
B000004855,5414399445,강원,강원특별자치도교육청,동내초등학교,233.0,218.0,220.0,201.0,196.0,191.0,221.0,259.0,296.0,321.0,355.0,345.0,332.0,318.0,303.0,1941-02-28,강원특별자치도 춘천시 동내면 신촌리 491 번지,강원특별자치도 춘천시 동내면 동내로 131,37.85129444,127.7657926
B000004994,5422711610,강원,강원특별자치도교육청,현북초등학교,13.0,17.0,18.0,21.0,25.0,21.0,21.0,20.0,12.0,9.0,12.0,18.0,27.0,44.0,55.0,1931-04-01,강원특별자치도 양양군 현북면 상광정리 577 번지,강원특별자치도 양양군 현북면 송이로 222,38.01573531,128.6973928
B000005218,5480284690,강원,강원특별자치도교육청,거성초등학교,106.0,91.0,87.0,77.0,65.0,57.0,59.0,53.0,49.0,54.0,49.0,50.0,43.0,41.0,27.0,1969-03-08,강원특별자치도 고성군 거진읍 거진리 180 번지,강원특별자치도 고성군 거진읍 거성길 38,38.45258108,128.4571606
B000005158,5499890565,강원,강원특별자치도교육청,서면초등학교,122.0,115.0,105.0,115.0,95.0,94.0,93.0,96.0,92.0,78.0,71.0,57.0,59.0,50.0,55.0,1954-12-07,강원특별자치도 철원군 서면 자등리 686-2 번지,강원특별자치도 철원군 서면 자등로 634,38.16847615,127.4169341
B000026210,5542868673,강원,강원특별자치도교육청,유천초등학교,0.0,0.0,0.0,0.0,0.0,0.0,0.0,0.0,0.0,0.0,0.0,643.0,727.0,876.0,930.0,2020-03-01,강원특별자치도 강릉시 유천동 766,강원특별자치도 강릉시 선수촌로 100,37.76001124,128.871101
B000004823,5595374524,강원,강원특별자치도교육청,춘천초등학교,525.0,469.0,419.0,392.0,369.0,337.0,329.0,340.0,368.0,359.0,328.0,325.0,355.0,509.0,678.0,1906-09-01,강원특별자치도 춘천시 중앙로3가 40 번지,강원특별자치도 춘천시 방송길7번길 14-5,37.87411915,127.7219335
B000005067,5694581389,강원,강원특별자치도교육청,성남초등학교,62.0,47.0,47.0,46.0,50.0,63.0,59.0,60.0,60.0,62.0,62.0,62.0,62.0,60.0,62.0,1946-04-01,강원특별자치도 횡성군 횡성읍 곡교리 244-1 번지,강원특별자치도 횡성군 횡성읍 횡성로 109,37.46526355,127.9729081
B000005137,5704518437,강원,강원특별자치도교육청,함백초등학교,116.0,99.0,97.0,78.0,67.0,62.0,56.0,54.0,61.0,52.0,54.0,53.0,49.0,48.0,42.0,1943-10-05,강원특별자치도 정선군 신동읍 조동리 193,강원특별자치도 정선군 신동읍 조동6길 17-12,37.21635745,128.6732065
B000005222,5741561889,강원,강원특별자치도교육청,오호초등학교,54.0,50.0,41.0,42.0,41.0,43.0,48.0,41.0,49.0,40.0,36.0,38.0,36.0,42.0,42.0,1924-02-23,강원특별자치도 고성군 죽왕면 삼포리 152-3 번지,강원특별자치도 고성군 죽왕면 황포길 28,38.31375296,128.5319109
B000005156,5750228106,강원,강원특별자치도교육청,용정초등학교,45.0,44.0,41.0,42.0,46.0,57.0,61.0,60.0,65.0,60.0,48.0,37.0,36.0,46.0,38.0,1965-03-08,강원특별자치도 철원군 동송읍 상노리 182 번지,강원특별자치도 철원군 동송읍 상노2길 11,38.16317002,127.241457
B000004967,5792954087,강원,강원특별자치도교육청,통리초등학교,97.0,72.0,55.0,58.0,51.0,42.0,34.0,33.0,28.0,34.0,40.0,63.0,66.0,64.0,52.0,1959-04-06,강원특별자치도 태백시 통동 69-8 번지,강원특별자치도 태백시 통골2길 9,37.16673527,129.0354652
B000004899,5835683286,강원,강원특별자치도교육청,매지초등학교,65.0,67.0,68.0,63.0,74.0,65.0,61.0,61.0,63.0,58.0,53.0,43.0,42.0,45.0,41.0,1946-04-01,강원특별자치도 원주시 흥업면 매지리 1144 번지,강원특별자치도 원주시 흥업면 북원로 1324,37.26945131,127.9065605
B000005100,5841721475,강원,강원특별자치도교육청,마차초등학교,23.0,14.0,18.0,16.0,19.0,27.0,24.0,22.0,23.0,25.0,23.0,26.0,23.0,28.0,22.0,1941-06-01,강원특별자치도 영월군 북면 마차리 1358-1 번지,강원특별자치도 영월군 북면 밤재로 221,37.25744112,128.4536987
B000005017,5844087183,강원,강원특별자치도교육청,오저초등학교,12.0,8.0,9.0,16.0,12.0,10.0,9.0,10.0,11.0,16.0,11.0,11.0,13.0,11.0,10.0,1941-06-07,강원특별자치도 삼척시 가곡면 오저리 94 번지,강원특별자치도 삼척시 가곡면 가곡천로 1430,37.14662042,129.206674
B000004829,5849356651,강원,강원특별자치도교육청,호반초등학교,731.0,630.0,567.0,489.0,398.0,358.0,326.0,293.0,279.0,280.0,303.0,288.0,289.0,276.0,252.0,1991-04-10,강원특별자치도 춘천시 후평동 15 번지,강원특별자치도 춘천시 후만로126번길 35,37.87432976,127.7609773
B000005210,5854797780,강원,강원특별자치도교육청,기린초등학교,356.0,313.0,307.0,281.0,260.0,278.0,243.0,219.0,223.0,221.0,199.0,193.0,183.0,189.0,167.0,1923-03-01,강원특별자치도 인제군 기린면 현리 433-1 번지,강원특별자치도 인제군 기린면 기린로 76,37.95832485,128.3194073
B000005032,5888766884,강원,강원특별자치도교육청,오안초등학교,61.0,58.0,66.0,64.0,68.0,75.0,73.0,65.0,66.0,63.0,58.0,49.0,47.0,45.0,41.0,1944-04-01,강원특별자치도 홍천군 홍천읍 하오안리 597 번지,강원특별자치도 홍천군 홍천읍 오안로 12,37.6616897,127.8308979
B000005122,5934930384,강원,강원특별자치도교육청,안미초등학교,47.0,47.0,37.0,37.0,32.0,31.0,30.0,30.0,34.0,32.0,28.0,31.0,29.0,28.0,23.0,1943-05-31,강원특별자치도 평창군 대화면 하안미리 1635번지,강원특별자치도 평창군 대화면 하안미길 11-8,37.46067727,128.4344141
B000004874,5970250248,강원,강원특별자치도교육청,단구초등학교,802.0,707.0,621.0,530.0,449.0,428.0,414.0,373.0,365.0,365.0,351.0,331.0,300.0,300.0,292.0,1935-07-01,강원특별자치도 원주시 단구동 106 번지,강원특별자치도 원주시 단구초교길 5,37.32258023,127.9638908
B000005160,5974242985,강원,강원특별자치도교육청,토성초등학교,48.0,41.0,35.0,33.0,29.0,33.0,27.0,25.0,25.0,26.0,21.0,17.0,18.0,22.0,16.0,1954-11-17,강원특별자치도 철원군 갈말읍 토성리 545-2 번지,강원특별자치도 철원군 갈말읍 토성길 43,38.241019,127.3455948
B000004909,6018026292,강원,강원특별자치도교육청,황둔초등학교,58.0,51.0,51.0,55.0,52.0,51.0,42.0,43.0,37.0,29.0,21.0,15.0,20.0,17.0,22.0,1935-07-07,강원특별자치도 원주시 신림면 황둔리 350번지,강원특별자치도 원주시 신림면 신림황둔로 1185,37.26154816,128.1856828
B000005018,6037777006,강원,강원특별자치도교육청,장호초등학교,29.0,32.0,35.0,31.0,27.0,23.0,22.0,21.0,19.0,13.0,21.0,15.0,15.0,13.0,9.0,1939-09-11,강원특별자치도 삼척시 근덕면 용화리 166번지,강원특별자치도 삼척시 근덕면 용화안길 24,37.28869694,129.3019081
B000004934,6067707240,강원,강원특별자치도교육청,주문진초등학교삼덕분교장,11.0,10.0,9.0,5.0,28.0,36.0,37.0,40.0,31.0,33.0,24.0,17.0,12.0,11.0,11.0,1957-05-25,강원특별자치도 강릉시 주문진읍 장덕리 551,강원특별자치도 강릉시 주문진읍 신리천로 410-8,37.87867258,128.7885975
B000004961,6139398396,강원,강원특별자치도교육청,동해중앙초등학교,929.0,865.0,830.0,829.0,836.0,805.0,793.0,818.0,820.0,796.0,806.0,784.0,769.0,728.0,702.0,1941-07-01,강원특별자치도 동해시 천곡동 793 번지,강원특별자치도 동해시 천곡로 35,37.52533371,129.1084972
B000005177,6157429814,강원,강원특별자치도교육청,사내초등학교,338.0,295.0,240.0,270.0,265.0,263.0,250.0,249.0,245.0,266.0,263.0,247.0,229.0,221.0,201.0,1925-04-01,강원특별자치도 화천군 사내면 361 번지,강원특별자치도 화천군 사내면 사내로3길 13,38.06952254,127.521214
B000005164,6192882180,강원,강원특별자치도교육청,묘장초등학교,53.0,56.0,52.0,53.0,42.0,41.0,37.0,39.0,39.0,32.0,28.0,27.0,30.0,28.0,27.0,1968-03-01,강원특별자치도 철원군 철원읍 대마리 192-5 번지,강원특별자치도 철원군 철원읍 묘장로 344,38.26408626,127.1648028
B000005217,6193709909,강원,강원특별자치도교육청,간성초등학교,511.0,481.0,476.0,468.0,423.0,376.0,361.0,340.0,328.0,312.0,308.0,305.0,289.0,295.0,293.0,1910-05-10,강원특별자치도 고성군 간성읍 신안리 192 번지,강원특별자치도 고성군 간성읍 간성로 39,38.37894215,128.4706698
B000004904,6217986047,강원,강원특별자치도교육청,금대초등학교,15.0,19.0,13.0,9.0,12.0,17.0,14.0,21.0,26.0,43.0,52.0,52.0,51.0,53.0,41.0,1943-04-09,강원특별자치도 원주시 판부면 금대리 959 번지,강원특별자치도 원주시 판부면 금대길 10,37.28882214,127.9973613
B000004914,6223083853,강원,강원특별자치도교육청,명주초등학교,553.0,533.0,508.0,505.0,477.0,470.0,467.0,469.0,565.0,572.0,671.0,663.0,662.0,659.0,639.0,1946-03-06,강원특별자치도 강릉시 회산동 24번지,강원특별자치도 강릉시 강변로 86-1,37.74277817,128.8784692
B000004907,6234738588,강원,강원특별자치도교육청,호저초등학교,69.0,66.0,61.0,50.0,45.0,44.0,45.0,50.0,55.0,68.0,67.0,60.0,60.0,50.0,42.0,1934-04-01,강원특별자치도 원주시 호저면 주산리 511 번지,강원특별자치도 원주시 호저면 호저로 428,37.41176562,127.9255209
B000004827,6260241568,강원,강원특별자치도교육청,봉의초등학교,372.0,327.0,257.0,223.0,182.0,170.0,233.0,266.0,291.0,314.0,337.0,318.0,288.0,285.0,269.0,1940-04-01,강원특별자치도 춘천시 약사동 1번지,강원특별자치도 춘천시 춘천로 141,37.875811,127.7298935
B000005167,6324309885,강원,강원특별자치도교육청,도창초등학교,19.0,15.0,15.0,12.0,12.0,9.0,10.0,9.0,7.0,5.0,10.0,11.0,9.0,8.0,17.0,1967-03-01,강원특별자치도 철원군 김화읍 도창리 362-1번지,강원특별자치도 철원군 김화읍 도창2길 7-2,38.26742121,127.3520474
B000004927,6395337998,강원,강원특별자치도교육청,남강초등학교,482.0,422.0,379.0,331.0,304.0,282.0,248.0,256.0,230.0,229.0,210.0,175.0,163.0,145.0,142.0,1987-03-01,강원특별자치도 강릉시 포남동 1278-117번지,강원특별자치도 강릉시 경강로2310번길 7,37.7670985,128.9146306
B000005061,6408136427,강원,강원특별자치도교육청,화계초등학교대룡분교장,9.0,9.0,10.0,8.0,7.0,6.0,8.0,6.0,4.0,7.0,5.0,5.0,4.0,4.0,4.0,1939-12-05,강원특별자치도 홍천군 북방면 북방리 455-2번지,강원특별자치도 홍천군 북방면 성동로 1144-5,37.79409762,127.8654081
B000004857,6409313917,강원,강원특별자치도교육청,춘천삼육초등학교,167.0,172.0,184.0,186.0,192.0,221.0,224.0,232.0,236.0,255.0,260.0,242.0,263.0,283.0,284.0,1955-04-01,강원특별자치도 춘천시 동면 장학리 568-1,강원특별자치도 춘천시 동면 방죽길 56-10,37.91159681,127.7543199888
B000004950,6441266000,강원,강원특별자치도교육청,동호초등학교,586.0,546.0,483.0,418.0,378.0,337.0,297.0,273.0,253.0,263.0,305.0,315.0,303.0,292.0,265.0,1956-01-07,강원특별자치도 동해시 발한동 565-2 번지,강원특별자치도 동해시 발한로 123,37.54417872,129.1001844
B000005020,6452094078,강원,강원특별자치도교육청,도계초등학교,388.0,366.0,332.0,314.0,292.0,261.0,266.0,260.0,232.0,212.0,195.0,179.0,149.0,134.0,109.0,1940-03-24,강원특별자치도 삼척시 도계읍 도계리 399번지,강원특별자치도 삼척시 도계읍 도계로 265,37.23334067,129.0446262
B000004939,6452654659,강원,강원특별자치도교육청,옥계초등학교금진분교장,32.0,26.0,27.0,24.0,22.0,21.0,23.0,15.0,11.0,10.0,6.0,8.0,12.0,9.0,7.0,1961-08-07,강원특별자치도 강릉시 옥계면 금진리 417,강원특별자치도 강릉시 옥계면 금진안길 2,37.63495713,129.0434718
B000005042,6534680902,강원,강원특별자치도교육청,내촌초등학교,65.0,54.0,54.0,45.0,42.0,45.0,36.0,38.0,38.0,32.0,29.0,28.0,34.0,30.0,23.0,1929-11-29,강원특별자치도 홍천군 내촌면 도관리 443-1 번지,강원특별자치도 홍천군 내촌면 내촌길 21,37.81544735,128.085196
B000005190,6559337913,강원,강원특별자치도교육청,도촌초등학교,69.0,56.0,59.0,58.0,57.0,52.0,43.0,40.0,30.0,40.0,38.0,43.0,50.0,61.0,74.0,1955-05-01,강원특별자치도 양구군 국토정중앙면 도촌리 158-2 번지,강원특별자치도 양구군 국토정중앙면 정중앙로 259,38.08009801,128.0213746
B000004889,6559487044,강원,강원특별자치도교육청,동화초등학교,948.0,894.0,809.0,790.0,769.0,749.0,687.0,637.0,578.0,535.0,448.0,479.0,360.0,333.0,291.0,2004-05-19,강원특별자치도 원주시 문막읍 동화리 1534-2,강원특별자치도 원주시 문막읍 왕건로 83,37.3274788,127.8285781
B000004915,6581432878,강원,강원특별자치도교육청,모산초등학교,41.0,49.0,50.0,45.0,54.0,44.0,54.0,73.0,75.0,69.0,70.0,77.0,76.0,81.0,78.0,1941-09-28,강원특별자치도 강릉시 장현동 54-1 번지,강원특별자치도 강릉시 모산로224번길 3,37.73184003,128.9017805
B000005080,6582434415,강원,강원특별자치도교육청,서원초등학교,47.0,37.0,38.0,38.0,35.0,31.0,33.0,30.0,32.0,26.0,32.0,33.0,41.0,42.0,46.0,1934-09-01,강원특별자치도 횡성군 서원면 창촌리 577-1 번지,강원특별자치도 횡성군 서원면 서원로 173,37.48755011,127.8510705
B000005199,6641758441,강원,강원특별자치도교육청,부평초등학교,147.0,158.0,137.0,121.0,107.0,98.0,88.0,88.0,99.0,92.0,90.0,90.0,79.0,56.0,47.0,1946-04-01,강원특별자치도 인제군 남면 신남리 458 번지,강원특별자치도 인제군 남면 신남로94번길 7,37.96976661,128.0839125
B000005223,6690567135,강원,강원특별자치도교육청,동광초등학교,55.0,53.0,55.0,38.0,30.0,33.0,36.0,33.0,36.0,40.0,31.0,27.0,38.0,36.0,39.0,1944-08-05,강원특별자치도 고성군 토성면 교암리 86 번지,강원특별자치도 고성군 토성면 교암1길 15,38.288473,128.5434932
B000005170,6734989881,강원,강원특별자치도교육청,근남초등학교,106.0,117.0,121.0,129.0,129.0,116.0,103.0,112.0,103.0,84.0,77.0,82.0,93.0,81.0,69.0,1956-04-26,강원특별자치도 철원군 근남면 육단리 285-2 번지,강원특별자치도 철원군 근남면 육단2길 34,38.23838226,127.4700992
B000005207,6803922116,강원,강원특별자치도교육청,서화초등학교,198.0,187.0,195.0,186.0,178.0,165.0,166.0,138.0,132.0,119.0,114.0,93.0,78.0,71.0,76.0,1955-05-19,강원특별자치도 인제군 서화면 천도리 465 번지,강원특별자치도 인제군 서화면 금강로 1490,38.22925537,128.2085299
B000005183,6809063911,강원,강원특별자치도교육청,실내초등학교,37.0,49.0,53.0,36.0,33.0,44.0,42.0,30.0,34.0,33.0,32.0,32.0,40.0,52.0,33.0,1966-10-10,강원특별자치도 화천군 사내면 명월리 270 번지,강원특별자치도 화천군 사내면 실내길 26,38.12010974,127.5317739
B000004883,6815457761,강원,강원특별자치도교육청,태봉초등학교,1226.0,1108.0,1011.0,888.0,824.0,793.0,743.0,731.0,683.0,611.0,566.0,556.0,515.0,482.0,467.0,2002-03-01,강원특별자치도 원주시 태장동 485,강원특별자치도 원주시 흥양로51번길 113,37.38592017,127.9564644
B000005098,6891327261,강원,강원특별자치도교육청,옥동초등학교,57.0,56.0,57.0,50.0,46.0,40.0,38.0,38.0,37.0,40.0,34.0,34.0,36.0,32.0,30.0,1925-08-31,강원특별자치도 영월군 김삿갓면 옥동리 429 번지,강원특별자치도 영월군 김삿갓면 영월동로 1679,37.1304806,128.5698388
B000004848,6918577969,강원,강원특별자치도교육청,금산초등학교,69.0,69.0,78.0,83.0,76.0,70.0,71.0,71.0,72.0,77.0,84.0,87.0,87.0,89.0,85.0,1932-03-15,강원특별자치도 춘천시 서면 금산리 472-1번지,강원특별자치도 춘천시 서면 금산2길 21,37.90346175,127.6993912
B000004921,6927842319,강원,강원특별자치도교육청,영동초등학교,280.0,234.0,212.0,197.0,203.0,174.0,165.0,171.0,138.0,129.0,136.0,135.0,129.0,139.0,147.0,1985-06-07,강원특별자치도 강릉시 교동 1038 번지,강원특별자치도 강릉시 화부산로 28,37.76044419,128.8861601
B000004989,6955364465,강원,강원특별자치도교육청,양양초등학교,849.0,806.0,743.0,695.0,623.0,576.0,556.0,534.0,528.0,505.0,534.0,510.0,519.0,501.0,484.0,1906-09-08,강원특별자치도 양양군 양양읍 구교리 20 번지,강원특별자치도 양양군 양양읍 군청길 39,38.07732034,128.6217432
B000004947,6980833649,강원,강원특별자치도교육청,숲실초등학교,19.0,19.0,16.0,23.0,29.0,28.0,29.0,60.0,65.0,67.0,65.0,60.0,64.0,60.0,65.0,1944-06-13,강원특별자치도 강릉시 강동면 임곡리 350,강원특별자치도 강릉시 강동면 임곡로 890-14,37.67721845,128.9689053
B000004984,6996806740,강원,강원특별자치도교육청,청호초등학교,115.0,106.0,92.0,68.0,60.0,49.0,49.0,46.0,40.0,53.0,61.0,54.0,71.0,92.0,96.0,1957-01-23,강원특별자치도 속초시 청호동 432-38 번지,강원특별자치도 속초시 청호로 60,38.19625118,128.5983368
B000005172,7017938256,강원,강원특별자치도교육청,용암초등학교,49.0,41.0,49.0,53.0,60.0,62.0,62.0,61.0,61.0,56.0,42.0,38.0,37.0,38.0,33.0,1943-05-20,강원특별자치도 화천군 하남면 용암리 1048 번지,강원특별자치도 화천군 하남면 용화산로 1325,38.08949697,127.6998338
B000005039,7023158371,강원,강원특별자치도교육청,두촌초등학교,66.0,65.0,62.0,57.0,52.0,50.0,49.0,41.0,36.0,43.0,41.0,37.0,41.0,36.0,26.0,1922-10-30,강원특별자치도 홍천군 두촌면 자은리 915번지,강원특별자치도 홍천군 두촌면 자은로 329,37.86844665,128.0169715
B000005002,7048858761,강원,강원특별자치도교육청,회룡초등학교,46.0,46.0,45.0,40.0,37.0,38.0,42.0,38.0,33.0,30.0,31.0,26.0,27.0,23.0,27.0,1936-04-01,강원특별자치도 양양군 강현면 회룡리 190,강원특별자치도 양양군 강현면 회룡1길 161,38.13539555,128.5770198
B000005048,7062907099,강원,강원특별자치도교육청,삼생초등학교,48.0,47.0,53.0,48.0,35.0,26.0,21.0,18.0,17.0,18.0,27.0,24.0,25.0,22.0,19.0,1941-10-02,강원특별자치도 홍천군 서석면 생곡리 683-1 번지,강원특별자치도 홍천군 서석면 구룡령로 2933,37.70045828,128.2264767
B000005089,7085181772,강원,강원특별자치도교육청,봉래초등학교,148.0,168.0,136.0,128.0,119.0,128.0,118.0,108.0,97.0,101.0,96.0,80.0,84.0,87.0,71.0,1946-05-20,강원특별자치도 영월군 영월읍 덕포리 557 번지,강원특별자치도 영월군 영월읍 중앙로 168-17,37.17711747,128.4749781
B000005093,7093751966,강원,강원특별자치도교육청,연당초등학교,50.0,52.0,49.0,51.0,48.0,41.0,36.0,36.0,32.0,35.0,41.0,30.0,35.0,29.0,28.0,1935-10-29,강원특별자치도 영월군 남면 연당리 1097-4 번지,강원특별자치도 영월군 남면 연당로 17,37.18653689,128.4023188
B000005021,7111822009,강원,강원특별자치도교육청,장원초등학교,118.0,98.0,84.0,70.0,62.0,63.0,59.0,82.0,79.0,69.0,77.0,71.0,66.0,50.0,43.0,1978-04-29,강원특별자치도 삼척시 도계읍 도계리 212 번지,강원특별자치도 삼척시 도계읍 장원길 25,37.22822776,129.0554571
B000004991,7118906795,강원,강원특별자치도교육청,한남초등학교,40.0,43.0,46.0,48.0,46.0,60.0,63.0,60.0,65.0,60.0,62.0,49.0,42.0,35.0,24.0,1952-04-01,강원특별자치도 양양군 서면 용천리 505 번지,강원특별자치도 양양군 서면 남대천로 218,38.05629068,128.607378
B000004841,7134479165,강원,강원특별자치도교육청,후평초등학교,911.0,828.0,724.0,647.0,559.0,523.0,467.0,427.0,400.0,398.0,375.0,342.0,335.0,319.0,279.0,1980-10-02,강원특별자치도 춘천시 후평동 511-36,강원특별자치도 춘천시 춘천로295번길 17,37.88309525,127.743936
B000005033,7135156154,강원,강원특별자치도교육청,홍천초등학교,1154.0,1083.0,1028.0,967.0,882.0,875.0,821.0,797.0,794.0,778.0,718.0,629.0,559.0,501.0,433.0,1908-10-05,강원특별자치도 홍천군 홍천읍 희망리 313,강원특별자치도 홍천군 홍천읍 희망로4길 12,37.69250906,127.883816
B000004906,7143664121,강원,강원특별자치도교육청,만종초등학교,96.0,72.0,60.0,51.0,43.0,65.0,85.0,81.0,94.0,91.0,82.0,74.0,79.0,78.0,81.0,1946-04-03,강원특별자치도 원주시 호저면 만종리 610 번지,강원특별자치도 원주시 호저면 원문로 599,37.3556736,127.9020676
B000004898,7188028395,강원,강원특별자치도교육청,흥양초등학교,42.0,45.0,72.0,105.0,110.0,105.0,101.0,98.0,95.0,97.0,86.0,73.0,67.0,69.0,47.0,1940-06-01,강원특별자치도 원주시 소초면 흥양리 883 번지,강원특별자치도 원주시 소초면 하초구길 6,37.38126408,127.9965122
B000005127,7208066642,강원,강원특별자치도교육청,대관령초등학교,66.0,79.0,65.0,67.0,71.0,62.0,62.0,52.0,58.0,63.0,59.0,54.0,60.0,59.0,62.0,1932-10-02,강원특별자치도 평창군 대관령면 차항리 55-1,강원특별자치도 평창군 대관령면 도암새싹길 11,37.6891494,128.6940484
B000005139,7223476469,강원,강원특별자치도교육청,남선초등학교,54.0,43.0,40.0,38.0,33.0,45.0,44.0,43.0,42.0,41.0,40.0,28.0,31.0,30.0,29.0,1939-07-07,강원특별자치도 정선군 남면 문곡리 100-1 번지,강원특별자치도 정선군 남면 칠현로 70,37.26930638,128.7409500235
B000004910,7231732845,강원,강원특별자치도교육청,산현초등학교,23.0,17.0,14.0,13.0,14.0,15.0,11.0,10.0,13.0,14.0,14.0,38.0,48.0,46.0,42.0,1933-07-07,강원특별자치도 원주시 호저면 산현리 188 번지,강원특별자치도 원주시 호저면 칠봉로 347,37.42513544,127.8939741
B000005221,7236591935,강원,강원특별자치도교육청,죽왕초등학교,62.0,56.0,40.0,25.0,30.0,38.0,33.0,37.0,43.0,49.0,60.0,61.0,50.0,47.0,48.0,1965-10-01,강원특별자치도 고성군 죽왕면 오호리 225,강원특별자치도 고성군 죽왕면 송지호로 6,38.33033639,128.5224096
B000005082,7238459289,강원,강원특별자치도교육청,수백초등학교,35.0,33.0,26.0,28.0,29.0,40.0,51.0,57.0,60.0,66.0,64.0,60.0,65.0,51.0,46.0,1946-08-31,강원특별자치도 횡성군 공근면 수백리 341-1번지,강원특별자치도 횡성군 공근면 공근남로 446,37.53438292,128.0073002
B000004854,7279172003,강원,강원특별자치도교육청,지촌초등학교,50.0,52.0,43.0,37.0,34.0,29.0,29.0,27.0,30.0,30.0,26.0,29.0,21.0,24.0,19.0,1929-04-01,강원특별자치도 춘천시 사북면 지촌리 347 번지,강원특별자치도 춘천시 사북면 지촌길 130,38.03829095,127.6449579
B000004997,7315187633,강원,강원특별자치도교육청,인구초등학교,75.0,74.0,65.0,61.0,57.0,52.0,45.0,32.0,34.0,38.0,31.0,31.0,31.0,32.0,30.0,1923-05-10,강원특별자치도 양양군 현남면 인구리 27 번지,강원특별자치도 양양군 현남면 해송천로 10,37.968083,128.7583979
B000005007,7321255326,강원,강원특별자치도교육청,서부초등학교,268.0,273.0,261.0,248.0,244.0,268.0,279.0,304.0,306.0,298.0,298.0,256.0,237.0,212.0,184.0,1972-03-21,강원특별자치도 삼척시 원당동 114,강원특별자치도 삼척시 오십천로 279,37.439385,129.1500624
B000005006,7336880266,강원,강원특별자치도교육청,삼척남초등학교,28.0,25.0,29.0,27.0,26.0,25.0,24.0,22.0,25.0,33.0,37.0,35.0,49.0,45.0,49.0,1971-05-06,강원특별자치도 삼척시 오분동 40,강원특별자치도 삼척시 동해대로 3783-22,37.423543,129.1881536
B000004941,7359353423,강원,강원특별자치도교육청,성산초등학교,79.0,72.0,59.0,64.0,72.0,63.0,67.0,65.0,62.0,64.0,59.0,57.0,59.0,69.0,65.0,1922-04-01,강원특별자치도 강릉시 성산면 구산리 154 번지,강원특별자치도 강릉시 성산면 구산길 15,37.71907111,128.8337431
B000005054,7367754638,강원,강원특별자치도교육청,한서초등학교,24.0,24.0,23.0,22.0,21.0,22.0,19.0,19.0,17.0,17.0,14.0,15.0,16.0,15.0,16.0,1947-04-06,강원특별자치도 홍천군 서면 모곡리 492-1 번지,강원특별자치도 홍천군 서면 밤벌길2번길 12,37.6925275,127.6019824
B000005161,7410087943,강원,강원특별자치도교육청,장흥초등학교,62.0,58.0,53.0,41.0,37.0,48.0,76.0,87.0,109.0,99.0,84.0,60.0,61.0,48.0,43.0,1955-04-20,강원특별자치도 철원군 동송읍 장흥리 238-5 번지,강원특별자치도 철원군 동송읍 태봉로 2017,38.19337131,127.2668579
B000005171,7436782896,강원,강원특별자치도교육청,화천초등학교,700.0,637.0,591.0,587.0,547.0,534.0,474.0,477.0,432.0,435.0,459.0,442.0,418.0,411.0,429.0,1912-03-30,강원특별자치도 화천군 화천읍 아리 211-2,강원특별자치도 화천군 화천읍 화천새싹길 57,38.10474334,127.7088476
B000005008,7475927054,강원,강원특별자치도교육청,삼척초등학교,1047.0,961.0,858.0,780.0,697.0,701.0,679.0,664.0,697.0,750.0,816.0,836.0,845.0,832.0,792.0,1911-09-01,강원특별자치도 삼척시 교동 586,강원특별자치도 삼척시 교동로 43,37.44968087,129.1676312
B000004923,7510031878,강원,강원특별자치도교육청,노암초등학교,779.0,722.0,666.0,627.0,537.0,496.0,450.0,409.0,374.0,356.0,330.0,308.0,289.0,278.0,270.0,1979-03-15,강원특별자치도 강릉시 노암동 415-2 번지,강원특별자치도 강릉시 노암등길 71,37.74082297,128.901541
B000004893,7535164177,강원,강원특별자치도교육청,지정초등학교,66.0,67.0,56.0,49.0,53.0,53.0,53.0,53.0,60.0,59.0,56.0,60.0,47.0,55.0,55.0,1932-10-01,강원특별자치도 원주시 지정면 간현리 539-1 번지,강원특별자치도 원주시 지정면 지정로 103,37.34824579,127.8454526
B000004938,7544755756,강원,강원특별자치도교육청,정동초등학교,67.0,53.0,45.0,42.0,41.0,30.0,25.0,24.0,31.0,32.0,41.0,57.0,53.0,47.0,44.0,1940-11-03,강원특별자치도 강릉시 강동면 정동진리 184 번지,강원특별자치도 강릉시 강동면 헌화로 1055,37.68735318,129.0336174
B000005195,7564701199,강원,강원특별자치도교육청,해안초등학교,75.0,73.0,69.0,68.0,70.0,68.0,51.0,43.0,47.0,35.0,21.0,21.0,22.0,22.0,19.0,1933-04-06,강원특별자치도 양구군 해안면 현리 208 번지,강원특별자치도 양구군 해안면 펀치볼로 1341-33,38.28940861,128.1375394
B000005094,7598803341,강원,강원특별자치도교육청,쌍룡초등학교,68.0,61.0,57.0,54.0,46.0,44.0,37.0,35.0,40.0,39.0,38.0,38.0,34.0,37.0,35.0,1941-09-25,강원특별자치도 영월군 한반도면 쌍용리 597 번지,강원특별자치도 영월군 한반도면 무동길 50,37.17792101,128.3192001
B000004973,7619070112,강원,강원특별자치도교육청,미동초등학교,29.0,28.0,25.0,23.0,25.0,18.0,27.0,26.0,27.0,38.0,34.0,31.0,35.0,29.0,23.0,1940-08-29,강원특별자치도 태백시 원동 6-3 번지,강원특별자치도 태백시 역둔원동로 1405,37.25586205,128.9839195
B000004858,7715349078,강원,강원특별자치도교육청,송화초등학교,20.0,18.0,26.0,29.0,39.0,50.0,52.0,43.0,39.0,37.0,32.0,35.0,40.0,35.0,32.0,1934-05-10,강원특별자치도 춘천시 사북면 고탄리 126-1,강원특별자치도 춘천시 사북면 춘화로 510-5,37.98791842,127.708052
B000004843,7775343656,강원,강원특별자치도교육청,성원초등학교,1774.0,1757.0,1633.0,1517.0,1337.0,1261.0,1200.0,1124.0,1080.0,1053.0,1037.0,992.0,869.0,791.0,722.0,2005-08-01,강원특별자치도 춘천시 퇴계동 퇴계4지구 1035번지,강원특별자치도 춘천시 승지골길16번길 36,37.84832953,127.744912
B000004840,7807545185,강원,강원특별자치도교육청,부안초등학교,1033.0,951.0,891.0,778.0,680.0,628.0,584.0,511.0,477.0,484.0,608.0,762.0,824.0,871.0,940.0,1984-10-30,강원특별자치도 춘천시 후평동 474-3 번지,강원특별자치도 춘천시 서부대성로239번길 70,37.87621285,127.7501166
B000005068,7809183478,강원,강원특별자치도교육청,창림초등학교,16.0,16.0,15.0,21.0,17.0,21.0,26.0,28.0,19.0,27.0,34.0,39.0,42.0,39.0,31.0,1942-07-10,강원특별자치도 횡성군 횡성읍 추동리 3-4,강원특별자치도 횡성군 횡성읍 한우로 789,37.49569333,128.0360069
B000005090,7813063025,강원,강원특별자치도교육청,내성초등학교,224.0,205.0,205.0,205.0,202.0,208.0,186.0,181.0,167.0,171.0,171.0,158.0,159.0,148.0,135.0,1969-03-01,강원특별자치도 영월군 영월읍 영흥리 789-1 번지,강원특별자치도 영월군 영월읍 내성안길 9,37.19013485,128.4751137
B000005011,7827954113,강원,강원특별자치도교육청,임원초등학교,77.0,61.0,64.0,55.0,42.0,36.0,39.0,35.0,29.0,31.0,24.0,25.0,23.0,24.0,28.0,1934-02-26,강원특별자치도 삼척시 원덕읍 임원리 800 번지,강원특별자치도 삼척시 원덕읍 삼척로 1246,37.23608331,129.3422397
B000005168,7850041031,강원,강원특별자치도교육청,청양초등학교,80.0,66.0,70.0,71.0,85.0,98.0,105.0,98.0,103.0,112.0,130.0,126.0,122.0,125.0,118.0,1955-05-02,강원특별자치도 철원군 김화읍 청양리 870-2 번지,강원특별자치도 철원군 김화읍 청양로 381-19,38.24533197,127.3772901
B000004935,7925087630,강원,강원특별자치도교육청,구정초등학교,60.0,59.0,79.0,83.0,78.0,70.0,73.0,73.0,85.0,86.0,91.0,89.0,100.0,105.0,102.0,1936-08-04,강원특별자치도 강릉시 구정면 학산리 393번지,강원특별자치도 강릉시 구정면 범일로 266-14,37.71771534,128.8913615
B000005135,7948816597,강원,강원특별자치도교육청,고한초등학교,97.0,92.0,79.0,85.0,87.0,94.0,96.0,88.0,89.0,76.0,61.0,65.0,60.0,56.0,62.0,1968-03-01,강원특별자치도 정선군 고한읍 고한리 74,강원특별자치도 정선군 고한읍 고한4길 11,37.202943,128.8533378
B000004926,8009052574,강원,강원특별자치도교육청,포남초등학교,458.0,398.0,359.0,309.0,285.0,260.0,254.0,236.0,232.0,220.0,205.0,178.0,159.0,150.0,149.0,1981-09-01,강원특별자치도 강릉시 포남동 1085번지,강원특별자치도 강릉시 가작로287번길 20,37.77276174,128.9052949
B000005091,8022046804,강원,강원특별자치도교육청,영월초등학교,1089.0,996.0,942.0,922.0,873.0,809.0,774.0,741.0,697.0,669.0,643.0,609.0,605.0,598.0,579.0,1912-03-06,강원특별자치도 영월군 영월읍 하송리 23-1 번지,강원특별자치도 영월군 영월읍 하송안길 100,37.18247488,128.4679901
B000004882,8029057562,강원,강원특별자치도교육청,일산초등학교,831.0,760.0,678.0,603.0,510.0,439.0,419.0,404.0,377.0,346.0,352.0,307.0,275.0,274.0,249.0,1949-11-03,강원특별자치도 원주시 일산동 일산초교길 1,강원특별자치도 원주시 일산초교길 1,37.34637268,127.942107
B000005055,8059568762,강원,강원특별자치도교육청,모곡초등학교,29.0,25.0,30.0,33.0,26.0,24.0,19.0,19.0,16.0,12.0,9.0,5.0,9.0,8.0,8.0,1934-11-21,강원특별자치도 홍천군 서면 모곡리 184-2,강원특별자치도 홍천군 서면 설밀길 76,37.676874,127.6006639
B000004865,8087802767,강원,강원특별자치도교육청,무실초등학교,1627.0,1711.0,1292.0,1190.0,1156.0,972.0,860.0,750.0,725.0,711.0,677.0,650.0,542.0,529.0,504.0,2005-03-02,강원특별자치도 원주시 무실동 1652번지,강원특별자치도 원주시 만대로 155,37.33543002,127.9216593
B000004946,8135076165,강원,강원특별자치도교육청,신왕초등학교,27.0,22.0,21.0,18.0,23.0,39.0,46.0,43.0,28.0,36.0,34.0,49.0,55.0,53.0,49.0,1965-03-30,강원특별자치도 강릉시 연곡면 행정리 226-4 번지,강원특별자치도 강릉시 연곡면 진고개로 2265-11,37.85361534,128.7873096
B000004887,8145321130,강원,강원특별자치도교육청,원주삼육초등학교,452.0,494.0,519.0,470.0,462.0,484.0,462.0,480.0,514.0,534.0,526.0,551.0,545.0,546.0,534.0,1956-05-04,강원특별자치도 원주시 무실동 산 139 번지,강원특별자치도 원주시 북원로 1996,37.3260422,127.9227366
B000004861,8154865503,강원,강원특별자치도교육청,지촌초등학교지암분교장,25.0,24.0,23.0,26.0,19.0,21.0,15.0,12.0,14.0,10.0,15.0,16.0,15.0,14.0,11.0,1940-03-30,강원특별자치도 춘천시 사북면 지암리 308,강원특별자치도 춘천시 사북면 화악지암길 431,37.981211,127.6070879
B000005188,8172610461,강원,강원특별자치도교육청,한전초등학교,56.0,60.0,48.0,45.0,46.0,71.0,54.0,54.0,39.0,45.0,51.0,39.0,44.0,35.0,35.0,1957-05-11,강원특별자치도 양구군 양구읍 한전리 85 번지,강원특별자치도 양구군 양구읍 금강산로 858,38.14913098,128.0159854
B000005092,8197594165,강원,강원특별자치도교육청,청령포초등학교,27.0,30.0,29.0,34.0,33.0,40.0,42.0,43.0,55.0,71.0,75.0,64.0,64.0,58.0,48.0,1969-03-10,강원특별자치도 영월군 영월읍 방절리 496-2번지,강원특별자치도 영월군 영월읍 청령포로 191,37.18034788,128.4414799
B000004956,8229235649,강원,강원특별자치도교육청,청운초등학교,1821.0,1778.0,1765.0,1625.0,1407.0,1303.0,1224.0,1135.0,1024.0,977.0,960.0,937.0,857.0,791.0,792.0,2002-09-01,강원특별자치도 동해시 쇄운동 75번지,강원특별자치도 동해시 청운로 60,37.48530257,129.1041723
B000005147,8256297528,강원,강원특별자치도교육청,백전초등학교,19.0,20.0,17.0,17.0,17.0,12.0,20.0,24.0,18.0,13.0,12.0,15.0,21.0,24.0,26.0,1952-06-05,강원특별자치도 정선군 화암면 백전리 357 번지,강원특별자치도 정선군 화암면 대지산길 22,37.27434477,128.8728274
B000005138,8261761188,강원,강원특별자치도교육청,증산초등학교,125.0,112.0,95.0,84.0,91.0,101.0,96.0,91.0,88.0,92.0,82.0,61.0,62.0,59.0,48.0,1945-03-31,강원특별자치도 정선군 남면 무릉리 412-5 번지,강원특별자치도 정선군 남면 민둥산로 12,37.25492831,128.7807294
B000004869,8281690537,강원,강원특별자치도교육청,단관초등학교,1494.0,1521.0,1600.0,1601.0,1498.0,1456.0,1378.0,1273.0,1189.0,1137.0,1059.0,907.0,853.0,800.0,740.0,2005-03-02,강원특별자치도 원주시 관설동 1723 단관초등학교,강원특별자치도 원주시 단관초교길 14,37.31754759,127.9635503
B000004847,8294051766,강원,강원특별자치도교육청,금병초등학교,69.0,76.0,179.0,145.0,135.0,138.0,166.0,187.0,183.0,190.0,180.0,184.0,177.0,207.0,189.0,1947-02-01,강원특별자치도 춘천시 신동면 증리 360-1,강원특별자치도 춘천시 신동면 김유정로 1394,37.81475452,127.7147409
B000005013,8330463826,강원,강원특별자치도교육청,미로초등학교,76.0,68.0,58.0,56.0,60.0,59.0,53.0,56.0,55.0,56.0,57.0,52.0,51.0,42.0,44.0,1934-11-15,강원특별자치도 삼척시 미로면 하거노리 325 번지,강원특별자치도 삼척시 미로면 미로강변로1길 10-11,37.41491592,129.1150046
B000004972,8386232316,강원,강원특별자치도교육청,동점초등학교,42.0,38.0,34.0,32.0,31.0,30.0,30.0,34.0,35.0,28.0,32.0,24.0,18.0,20.0,20.0,1947-02-10,강원특별자치도 태백시 동점동 60-1,강원특별자치도 태백시 방터골1길 59,37.10057564,129.0498649
B000005077,8389569520,강원,강원특별자치도교육청,공근초등학교,94.0,78.0,70.0,59.0,46.0,57.0,60.0,58.0,51.0,62.0,56.0,49.0,57.0,51.0,50.0,1925-10-03,강원특별자치도 횡성군 공근면 학담리 113 번지,강원특별자치도 횡성군 공근면 영서로 207,37.53371687,127.9609625
B000005179,8393321931,강원,강원특별자치도교육청,풍산초등학교,51.0,49.0,45.0,57.0,41.0,31.0,37.0,47.0,58.0,58.0,63.0,59.0,55.0,63.0,46.0,1941-06-05,강원특별자치도 화천군 화천읍 풍산리 764-5 번지,강원특별자치도 화천군 화천읍 평화로 1284,38.14775096,127.7414389
B000005219,8419815719,강원,강원특별자치도교육청,거진초등학교,249.0,225.0,196.0,179.0,158.0,143.0,143.0,141.0,135.0,122.0,110.0,105.0,87.0,87.0,83.0,1929-03-20,강원특별자치도 고성군 거진읍 자산리 72 번지,강원특별자치도 고성군 거진읍 자산길 19,38.43847289,128.4448362
B000004852,8431651234,강원,강원특별자치도교육청,가산초등학교,60.0,54.0,49.0,51.0,48.0,51.0,55.0,65.0,70.0,85.0,84.0,82.0,77.0,74.0,70.0,1936-09-15,강원특별자치도 춘천시 동면 지내리 136-2 번지,강원특별자치도 춘천시 동면 가산로 52,37.90800105,127.7824565
B000004832,8437111675,강원,강원특별자치도교육청,석사초등학교,938.0,1019.0,990.0,969.0,921.0,917.0,947.0,890.0,890.0,919.0,921.0,851.0,759.0,749.0,741.0,1969-04-10,강원특별자치도 춘천시 석사동 326 번지,강원특별자치도 춘천시 공지로 108-17,37.85815744,127.749422
B000004943,8463543772,강원,강원특별자치도교육청,사천초등학교,71.0,74.0,67.0,59.0,57.0,65.0,72.0,65.0,74.0,78.0,76.0,71.0,69.0,71.0,72.0,1924-05-18,강원특별자치도 강릉시 사천면 미노리 407,강원특별자치도 강릉시 사천면 미노길 46,37.82188867,128.8505139
B000005166,8485534131,강원,강원특별자치도교육청,김화초등학교,52.0,47.0,49.0,57.0,68.0,73.0,80.0,98.0,91.0,92.0,52.0,58.0,53.0,48.0,39.0,1955-06-10,강원특별자치도 철원군 김화읍 학사리 313-1 번지,강원특별자치도 철원군 김화읍 김화로 551,38.252647,127.413839
B000005097,8543917238,강원,강원특별자치도교육청,녹전초등학교,53.0,49.0,43.0,34.0,36.0,34.0,31.0,25.0,20.0,24.0,25.0,26.0,24.0,24.0,28.0,1936-10-31,강원특별자치도 영월군 산솔면 녹전리 756-2 번지,강원특별자치도 영월군 산솔면 유전길 3-2,37.14775137,128.6815846
B000005045,8620691716,강원,강원특별자치도교육청,명덕초등학교,207.0,151.0,140.0,123.0,197.0,207.0,206.0,192.0,174.0,175.0,173.0,146.0,146.0,154.0,115.0,1919-05-17,강원특별자치도 홍천군 남면 양덕원리 281 번지,강원특별자치도 홍천군 남면 양덕원로 117,37.61960883,127.7674294
B000004942,8665788233,강원,강원특별자치도교육청,송양초등학교,53.0,53.0,72.0,97.0,108.0,145.0,132.0,126.0,130.0,132.0,143.0,109.0,107.0,100.0,99.0,1943-07-05,강원특별자치도 강릉시 성산면 위촌리 589 번지,강원특별자치도 강릉시 성산면 위촌길 198,37.75885165,128.8477386
B000005209,8685740113,강원,강원특별자치도교육청,하남초등학교,18.0,29.0,38.0,39.0,38.0,41.0,31.0,30.0,27.0,33.0,37.0,32.0,27.0,30.0,30.0,1946-11-25,강원특별자치도 인제군 상남면 하남리 1230 번지,강원특별자치도 인제군 상남면 내린천로 3195,37.910975,128.2859685
B000004870,8687828481,강원,강원특별자치도교육청,관설초등학교,90.0,76.0,68.0,64.0,63.0,58.0,53.0,53.0,43.0,47.0,49.0,37.0,52.0,41.0,42.0,1969-04-01,강원특별자치도 원주시 관설동 1277,강원특별자치도 원주시 치악로 1355,37.30874675,127.9760113
B000004976,8698922097,강원,강원특별자치도교육청,영랑초등학교,445.0,366.0,309.0,277.0,242.0,231.0,217.0,214.0,198.0,201.0,188.0,168.0,158.0,160.0,141.0,1938-04-01,강원특별자치도 속초시 영랑동 163-1 번지,강원특별자치도 속초시 중앙로 331,38.21790959,128.5905961
B000004902,8722272872,강원,강원특별자치도교육청,신림초등학교,107.0,92.0,89.0,81.0,86.0,76.0,66.0,57.0,50.0,49.0,49.0,41.0,48.0,43.0,44.0,1925-08-31,강원특별자치도 원주시 신림면 신림리 518번지,강원특별자치도 원주시 신림면 치악로 34,37.23155517,128.0786998
B000004940,8750177502,강원,강원특별자치도교육청,옥계초등학교,176.0,139.0,141.0,114.0,103.0,103.0,93.0,81.0,88.0,80.0,72.0,58.0,52.0,55.0,55.0,1920-09-01,강원특별자치도 강릉시 옥계면 현내리 344-1,강원특별자치도 강릉시 옥계면 옥계로 1074,37.6094088,129.0347767
B000005187,8801349222,강원,강원특별자치도교육청,양구초등학교,478.0,445.0,460.0,486.0,503.0,576.0,591.0,608.0,580.0,608.0,602.0,560.0,504.0,493.0,491.0,1911-04-01,강원특별자치도 양구군 양구읍 상리 197-2 번지,강원특별자치도 양구군 양구읍 양구새싹로 48,38.10290823,127.9914525
B000004912,8856809794,강원,강원특별자치도교육청,초당초등학교,709.0,649.0,604.0,572.0,539.0,506.0,460.0,409.0,378.0,367.0,333.0,294.0,269.0,267.0,261.0,1992-03-01,강원특별자치도 강릉시 초당동 산16 번지,강원특별자치도 강릉시 연당길 35-11,37.781684,128.913111
B000005120,8862061023,강원,강원특별자치도교육청,방림초등학교,34.0,32.0,30.0,33.0,28.0,26.0,22.0,26.0,26.0,23.0,22.0,23.0,21.0,20.0,15.0,1937-09-01,강원특별자치도 평창군 방림면 방림리 1344 번지,강원특별자치도 평창군 방림면 방림1길 9,37.42747954,128.3921733
B000004835,8864751815,강원,강원특별자치도교육청,우석초등학교,1078.0,977.0,845.0,790.0,723.0,692.0,615.0,546.0,539.0,511.0,519.0,492.0,452.0,438.0,396.0,1999-09-01,강원특별자치도 춘천시 석사동 754 번지,강원특별자치도 춘천시 애막골길16번길 6,37.86466554,127.7496908
B000005150,8882828295,강원,강원특별자치도교육청,예미초등학교운치분교장,8.0,6.0,8.0,9.0,7.0,5.0,6.0,5.0,4.0,6.0,3.0,5.0,4.0,4.0,3.0,1949-07-31,강원특별자치도 정선군 신동읍 운치리 1057,강원특별자치도 정선군 신동읍 운치길 51,37.26997882,128.6074041
B000005118,8885215461,강원,강원특별자치도교육청,횡계초등학교,261.0,243.0,208.0,182.0,177.0,175.0,174.0,150.0,147.0,138.0,131.0,113.0,107.0,116.0,91.0,1967-05-06,강원특별자치도 평창군 대관령면 횡계리 304-3,강원특별자치도 평창군 대관령면 꽃밭양지길 16-3,37.67651721,128.7118375
B000004839,8908989489,강원,강원특별자치도교육청,동춘천초등학교,408.0,364.0,313.0,296.0,283.0,267.0,260.0,253.0,254.0,239.0,248.0,233.0,246.0,231.0,212.0,1972-10-06,강원특별자치도 춘천시 효자동 44-3 번지,강원특별자치도 춘천시 성심로 77,37.87687276,127.7433163
B000005095,8989937484,강원,강원특별자치도교육청,신천초등학교,56.0,51.0,48.0,46.0,42.0,43.0,35.0,34.0,32.0,25.0,25.0,23.0,24.0,44.0,54.0,1936-11-24,강원특별자치도 영월군 한반도면 신천리 470-1번지,강원특별자치도 영월군 한반도면 신천길 4,37.23636557,128.3290029
B000005142,9000945806,강원,강원특별자치도교육청,남평초등학교,35.0,40.0,39.0,36.0,28.0,26.0,22.0,26.0,20.0,22.0,25.0,25.0,23.0,14.0,9.0,1940-08-28,강원특별자치도 정선군 북평면 남평리 396 번지,강원특별자치도 정선군 북평면 송석길 137,37.43121093,128.6628689
B000004846,9034506142,강원,강원특별자치도교육청,상천초등학교,138.0,123.0,120.0,108.0,126.0,131.0,123.0,122.0,121.0,118.0,111.0,109.0,103.0,102.0,83.0,1954-11-02,강원특별자치도 춘천시 신북읍 천전리 170번지,강원특별자치도 춘천시 신북읍 상천2길 19,37.93360761,127.7858296
B000023989,9069064795,강원,강원특별자치도교육청,솔샘초등학교,0.0,0.0,0.0,0.0,0.0,233.0,650.0,855.0,963.0,1024.0,1041.0,1022.0,960.0,979.0,933.0,2014-06-05,강원특별자치도 원주시 무실동 1863-1,강원특별자치도 원주시 무실로 381,37.32997035,127.9295665
B000004850,9110288202,강원,강원특별자치도교육청,서상초등학교,45.0,40.0,42.0,49.0,47.0,61.0,62.0,66.0,65.0,60.0,57.0,59.0,63.0,70.0,65.0,1945-06-10,강원특별자치도 춘천시 서면 신매리 329-1 번지,강원특별자치도 춘천시 서면 박사로 1348,37.9291721,127.707289
B000004896,9121916115,강원,강원특별자치도교육청,둔둔초등학교,79.0,74.0,98.0,87.0,134.0,137.0,147.0,158.0,145.0,152.0,119.0,103.0,100.0,73.0,67.0,1947-01-16,강원특별자치도 원주시 소초면 둔둔리 769 번지,강원특별자치도 원주시 소초면 버덩마을길 7,37.44666265,127.9793019
B000004996,9176822006,강원,강원특별자치도교육청,남애초등학교,28.0,26.0,30.0,21.0,16.0,10.0,12.0,13.0,11.0,12.0,16.0,13.0,10.0,14.0,14.0,1963-01-07,강원특별자치도 양양군 현남면 남애리 554 번지,강원특별자치도 양양군 현남면 갯마을길 10,37.94661618,128.7807802
B000005117,9215296149,강원,강원특별자치도교육청,진부초등학교,545.0,489.0,434.0,373.0,321.0,288.0,289.0,273.0,271.0,259.0,234.0,219.0,191.0,191.0,168.0,1922-01-20,강원특별자치도 평창군 진부면 하진부리 210 번지,강원특별자치도 평창군 진부면 진부새싹길 52,37.63947236,128.557074
B000004937,9252364277,강원,강원특별자치도교육청,강동초등학교,107.0,84.0,77.0,69.0,59.0,61.0,65.0,92.0,88.0,87.0,83.0,74.0,71.0,60.0,52.0,1932-02-10,강원특별자치도 강릉시 강동면 모전리 320-1 번지,강원특별자치도 강릉시 강동면 단경로 20,37.72474403,128.9623406
B000004954,9266510248,강원,강원특별자치도교육청,동해초등학교,541.0,483.0,386.0,322.0,346.0,332.0,336.0,319.0,297.0,289.0,291.0,269.0,260.0,260.0,256.0,1989-10-02,강원특별자치도 동해시 용정동 475-3 번지,강원특별자치도 동해시 봉오주택길 22,37.51222384,129.1197999743
B000005178,9287934124,강원,강원특별자치도교육청,원천초등학교,34.0,35.0,32.0,44.0,40.0,36.0,45.0,43.0,45.0,27.0,30.0,33.0,34.0,40.0,33.0,1954-11-17,강원특별자치도 화천군 하남면 원천리 440 번지,강원특별자치도 화천군 하남면 원천새싹길 16,38.05970511,127.6665764
B000005038,9301355361,강원,강원특별자치도교육청,화촌초등학교,66.0,54.0,52.0,37.0,36.0,41.0,33.0,33.0,28.0,27.0,26.0,24.0,34.0,18.0,17.0,1925-07-01,강원특별자치도 홍천군 화촌면 성산리 367-1 번지,강원특별자치도 홍천군 화촌면 성산로147번길 8,37.77248726,127.9666209
B000004959,9385318160,강원,강원특별자치도교육청,송정초등학교,114.0,120.0,103.0,104.0,105.0,99.0,96.0,92.0,98.0,90.0,81.0,81.0,82.0,74.0,70.0,1938-04-29,강원특별자치도 동해시 송정동 1058번지,강원특별자치도 동해시 동해역길 25,37.49516696,129.1228649
B000005052,9416842699,강원,강원특별자치도교육청,대곡초등학교,19.0,18.0,27.0,22.0,21.0,21.0,18.0,22.0,23.0,23.0,24.0,26.0,28.0,24.0,23.0,1947-04-01,강원특별자치도 홍천군 서면 대곡리 550번지,강원특별자치도 홍천군 서면 한서로 1843,37.62856389,127.6486907
B000004872,9426174104,강원,강원특별자치도교육청,북원초등학교,687.0,600.0,500.0,450.0,396.0,383.0,347.0,302.0,291.0,265.0,230.0,201.0,196.0,195.0,176.0,1900-01-01,강원특별자치도 원주시 단계동 796번지,강원특별자치도 원주시 단구로 60,37.34305588,127.9383479
B000005228,9483519732,강원,강원특별자치도교육청,도학초등학교,20.0,33.0,48.0,52.0,42.0,23.0,34.0,31.0,35.0,31.0,32.0,39.0,42.0,42.0,49.0,1961-08-07,강원특별자치도 고성군 토성면 도원리 189 번지,강원특별자치도 고성군 토성면 무릉도원로 486,38.27189948,128.5009771
B000005046,9488892734,강원,강원특별자치도교육청,화계초등학교,59.0,54.0,50.0,61.0,58.0,64.0,66.0,70.0,76.0,82.0,82.0,84.0,85.0,79.0,76.0,1936-11-15,강원특별자치도 홍천군 북방면 능평리 74-2,강원특별자치도 홍천군 북방면 능평길 10,37.7114982,127.8488434
B000005114,9490029454,강원,강원특별자치도교육청,봉평초등학교,244.0,223.0,202.0,192.0,191.0,190.0,190.0,194.0,193.0,198.0,182.0,173.0,161.0,148.0,147.0,1931-10-01,강원특별자치도 평창군 봉평면 창동리 329 번지,강원특별자치도 평창군 봉평면 기풍8길 22,37.61588866,128.3813243
B000005173,9524381041,강원,강원특별자치도교육청,상승초등학교,23.0,17.0,24.0,21.0,17.0,16.0,16.0,15.0,12.0,13.0,27.0,28.0,39.0,44.0,40.0,1938-04-01,강원특별자치도 화천군 상서면 파포리 291 번지,강원특별자치도 화천군 상서면 평촌길 126-30,38.15682448,127.6496754
B000005225,9529711663,강원,강원특별자치도교육청,천진초등학교,133.0,111.0,111.0,101.0,104.0,85.0,82.0,75.0,66.0,71.0,73.0,65.0,91.0,150.0,139.0,1925-03-02,강원특별자치도 고성군 토성면 천진리 천진2리 181 번지,강원특별자치도 고성군 토성면 천진1길 14,38.25743795,128.5570899
B000005041,9558470845,강원,강원특별자치도교육청,서석초등학교,145.0,122.0,106.0,87.0,73.0,64.0,68.0,64.0,56.0,55.0,57.0,48.0,46.0,49.0,47.0,1926-12-10,강원특별자치도 홍천군 서석면 풍암리 194 번지,강원특별자치도 홍천군 서석면 풍암길 58,37.71239602,128.1882303
B000005115,9585822403,강원,강원특별자치도교육청,장평초등학교,140.0,124.0,116.0,108.0,105.0,96.0,95.0,78.0,71.0,74.0,61.0,57.0,43.0,40.0,39.0,1954-02-02,강원특별자치도 평창군 용평면 장평리 404-1 번지,강원특별자치도 평창군 용평면 갈정지길 35-43,37.59256373,128.4107169
B000004828,9609669387,강원,강원특별자치도교육청,근화초등학교,285.0,250.0,256.0,236.0,221.0,213.0,251.0,237.0,218.0,209.0,212.0,210.0,206.0,218.0,215.0,1954-08-23,강원특별자치도 춘천시 근화동 802-14 번지,강원특별자치도 춘천시 소양로163번길 23,37.88852203,127.7229056
B000005128,9613693237,강원,강원특별자치도교육청,도성초등학교,21.0,20.0,16.0,14.0,8.0,17.0,25.0,27.0,28.0,32.0,39.0,37.0,38.0,35.0,34.0,1941-04-01,강원특별자치도 평창군 대관령면 유천리 759-1,강원특별자치도 평창군 대관령면 경강로 4177-6,37.67082944,128.599366
B000004945,9629464626,강원,강원특별자치도교육청,연곡초등학교,156.0,165.0,174.0,178.0,177.0,178.0,195.0,204.0,191.0,191.0,188.0,176.0,180.0,176.0,167.0,1934-03-10,강원특별자치도 강릉시 연곡면 동덕리 959 번지,강원특별자치도 강릉시 연곡면 진고개로 2656,37.85709645,128.8292866
B000004903,9656193912,강원,강원특별자치도교육청,서곡초등학교,87.0,98.0,103.0,120.0,144.0,144.0,147.0,155.0,181.0,182.0,174.0,170.0,171.0,142.0,129.0,1948-12-14,강원특별자치도 원주시 판부면 서곡리 1110 번지,강원특별자치도 원주시 판부면 용수골길 159,37.29832271,127.9390294
B000005180,9658766686,강원,강원특별자치도교육청,다목초등학교,39.0,38.0,40.0,41.0,45.0,38.0,34.0,35.0,30.0,15.0,13.0,9.0,19.0,15.0,18.0,1970-03-06,강원특별자치도 화천군 상서면 다목리 508 번지,강원특별자치도 화천군 상서면 다파로 9-4,38.17591682,127.5345915
B000005099,9661831915,강원,강원특별자치도교육청,무릉초등학교,34.0,25.0,30.0,27.0,33.0,37.0,38.0,42.0,41.0,38.0,42.0,36.0,37.0,33.0,28.0,1946-04-01,강원특별자치도 영월군 무릉도원면 893-1 번지,강원특별자치도 영월군 무릉도원면 중방안길 68,37.29034006,128.267914
B000004931,9686888575,강원,강원특별자치도교육청,주문진초등학교,1067.0,980.0,885.0,803.0,708.0,593.0,525.0,493.0,454.0,446.0,390.0,354.0,317.0,321.0,291.0,1919-06-11,강원특별자치도 강릉시 주문진읍 교항리 161,강원특별자치도 강릉시 주문진읍 주문로 26,37.88688223,128.8266399
B000005159,9704299330,강원,강원특별자치도교육청,내대초등학교,60.0,47.0,42.0,31.0,29.0,25.0,22.0,35.0,43.0,36.0,32.0,39.0,40.0,45.0,43.0,1963-03-20,강원특별자치도 철원군 갈말읍 내대리 156-2 번지,강원특별자치도 철원군 갈말읍 두루미로 422-21,38.20592384,127.297469
B000004952,9707034647,강원,강원특별자치도교육청,창호초등학교,102.0,92.0,79.0,86.0,85.0,84.0,87.0,75.0,73.0,57.0,59.0,51.0,50.0,63.0,64.0,1963-11-11,강원특별자치도 동해시 묵호진동 85-7 번지,강원특별자치도 동해시 해맞이길 183,37.55924145,129.1081551
B000004949,9743797004,강원,강원특별자치도교육청,남호초등학교,357.0,312.0,433.0,429.0,472.0,573.0,676.0,747.0,830.0,872.0,914.0,878.0,852.0,823.0,745.0,1967-03-30,강원특별자치도 동해시 평릉동 443,강원특별자치도 동해시 평원로 120,37.53437365,129.1131685
B000004913,9777775228,강원,강원특별자치도교육청,동명초등학교,440.0,419.0,394.0,370.0,356.0,379.0,375.0,342.0,337.0,341.0,359.0,395.0,440.0,446.0,430.0,1938-07-04,강원특별자치도 강릉시 송정동 168-1,강원특별자치도 강릉시 경강로 2473,37.77543116,128.9287446
B000004925,9788667142,강원,강원특별자치도교육청,성덕초등학교,1042.0,973.0,923.0,840.0,739.0,724.0,791.0,752.0,753.0,747.0,756.0,712.0,675.0,639.0,626.0,1935-12-02,강원특별자치도 강릉시 입암동 625-1 번지,강원특별자치도 강릉시 용지로 60,37.75644211,128.910547
B000005136,9806923329,강원,강원특별자치도교육청,예미초등학교,64.0,63.0,53.0,55.0,63.0,62.0,63.0,69.0,73.0,75.0,65.0,57.0,56.0,51.0,47.0,1934-10-20,강원특별자치도 정선군 신동읍 예미리 616-5,강원특별자치도 정선군 신동읍 의림로 327,37.22101035,128.6453889
B000005155,9811930477,강원,강원특별자치도교육청,문혜초등학교,123.0,90.0,78.0,73.0,67.0,77.0,64.0,60.0,66.0,68.0,58.0,51.0,49.0,54.0,41.0,1920-04-01,강원특별자치도 철원군 갈말읍 문혜리 1100번지,강원특별자치도 철원군 갈말읍 태봉로 1556,38.18684432,127.3180704
B000005044,9827632665,강원,강원특별자치도교육청,매산초등학교,76.0,59.0,54.0,41.0,31.0,33.0,28.0,28.0,28.0,30.0,32.0,32.0,28.0,23.0,13.0,1938-12-01,강원특별자치도 홍천군 남면 유치리 1520 번지,강원특별자치도 홍천군 남면 시동안로 351,37.59114866,127.8467209
B000005165,9840972900,강원,강원특별자치도교육청,철원초등학교,379.0,332.0,305.0,261.0,250.0,232.0,226.0,212.0,206.0,213.0,194.0,174.0,135.0,127.0,120.0,1903-04-20,강원특별자치도 철원군 철원읍 화지리 66번지,강원특별자치도 철원군 철원읍 금학로 297-18,38.21350087,127.2111787
B000004958,9844081044,강원,강원특별자치도교육청,삼화초등학교,254.0,233.0,204.0,189.0,163.0,151.0,140.0,119.0,119.0,111.0,97.0,84.0,75.0,60.0,61.0,1942-05-27,강원특별자치도 동해시 삼화동 32-12 번지,강원특별자치도 동해시 파수길 38,37.48462946,129.0677054
B000005073,9911605119,강원,강원특별자치도교육청,안흥초등학교,80.0,84.0,61.0,49.0,51.0,46.0,57.0,52.0,64.0,57.0,53.0,46.0,44.0,40.0,47.0,1920-06-29,강원특별자치도 횡성군 안흥면 안흥리 89-1 번지,강원특별자치도 횡성군 안흥면 서동로 1257,37.420728,128.1644918
B000004963,9919576108,강원,강원특별자치도교육청,황지초등학교,1598.0,1528.0,1441.0,1362.0,1264.0,1220.0,1210.0,1185.0,1140.0,1079.0,1050.0,963.0,938.0,909.0,848.0,1935-11-28,강원특별자치도 태백시 황지동 85-1,강원특별자치도 태백시 황지로 63,37.16378702,128.9898295
B000005144,9946452915,강원,강원특별자치도교육청,임계초등학교,153.0,141.0,111.0,112.0,92.0,86.0,81.0,84.0,94.0,85.0,83.0,73.0,67.0,61.0,46.0,1922-07-15,강원특별자치도 정선군 임계면 송계리 746-2 번지,강원특별자치도 정선군 임계면 송계1길 7,37.49641199,128.8483571
B000005116,9951128005,강원,강원특별자치도교육청,호명초등학교,114.0,114.0,104.0,111.0,111.0,111.0,111.0,93.0,88.0,87.0,66.0,57.0,52.0,58.0,51.0,1963-11-12,강원특별자치도 평창군 진부면 송정리 1311 번지,강원특별자치도 평창군 진부면 약수동길 11,37.64226944,128.5692449
B000005079,9952363967,강원,강원특별자치도교육청,춘당초등학교,22.0,14.0,10.0,10.0,10.0,15.0,9.0,9.0,13.0,9.0,9.0,9.0,11.0,13.0,15.0,1942-04-30,강원특별자치도 횡성군 청일면 춘당리 759 번지,강원특별자치도 횡성군 청일면 청정로 1461,37.630309,128.1447802
B000005101,9986621141,강원,강원특별자치도교육청,구래초등학교,31.0,33.0,36.0,29.0,31.0,28.0,18.0,16.0,16.0,17.0,16.0,19.0,16.0,16.0,14.0,1939-09-25,강원특별자치도 영월군 상동읍 구래리 102-171 번지,강원특별자치도 영월군 상동읍 교촌길 20,37.14185819,128.8390436
B000003960,1014222681,경기,경기도교육청,석현초등학교,0.0,600.0,1066.0,1108.0,1143.0,1169.0,1237.0,1257.0,1302.0,674.0,612.0,564.0,551.0,530.0,514.0,2009-05-01,경기도 용인시 기흥구 영덕동 1070,경기도 용인시 기흥구 흥덕3로 42,37.27278759,127.0830481
B000003950,1014322459,경기,경기도교육청,용인한일초등학교,548.0,643.0,668.0,666.0,664.0,671.0,675.0,616.0,598.0,624.0,557.0,486.0,461.0,417.0,400.0,2007-03-01,경기도 용인시 기흥구 공세동 680,경기도 용인시 기흥구 한보라1로 145,37.24332154,127.1069279
B000004312,1024815261,경기,경기도교육청,서부초등학교,139.0,124.0,118.0,104.0,95.0,92.0,76.0,73.0,69.0,60.0,47.0,51.0,46.0,60.0,72.0,1936-03-20,경기도 하남시 감일동 14-8,경기도 하남시 서하남로 161,37.51574263,127.1620385
B000004683,1059942007,경기,경기도교육청,두일초등학교,569.0,631.0,633.0,685.0,659.0,683.0,666.0,654.0,634.0,600.0,575.0,558.0,524.0,501.0,685.0,2006-03-01,경기도 파주시 동패동 1743,경기도 파주시 책향기숲길 47,37.72010113,126.7136092
B000004130,1064996361,경기,경기도교육청,송일초등학교,852.0,787.0,719.0,643.0,558.0,492.0,484.0,444.0,410.0,397.0,343.0,307.0,270.0,235.0,220.0,1998-03-01,경기도 평택시 서정동 909,경기도 평택시 송일로 6,37.06276469,127.0595666
B000004335,1075360953,경기,경기도교육청,사우초등학교,1095.0,1009.0,934.0,829.0,757.0,709.0,683.0,659.0,644.0,675.0,856.0,864.0,824.0,772.0,683.0,1999-01-15,경기도 김포시 사우동 907,경기도 김포시 사우로 20,37.62052677,126.7239749
B000024701,1080629348,경기,경기도교육청,방교초등학교,0.0,0.0,0.0,0.0,0.0,0.0,0.0,0.0,550.0,643.0,752.0,1149.0,1289.0,1340.0,1359.0,2016-12-01,경기도 화성시 송동 산49-5,경기도 화성시 동탄산척로1길 11,37.17326405,127.1015231
B000004167,1084430038,경기,경기도교육청,솔빛초등학교,1400.0,1468.0,1507.0,1538.0,1514.0,1525.0,1571.0,1465.0,1553.0,1550.0,1542.0,1556.0,1528.0,1470.0,1340.0,2007-09-01,경기도 화성시 반송동 133,경기도 화성시 동탄반석로 84,37.1967436,127.0737903
B000003723,1087284445,경기,경기도교육청,대일초등학교,1017.0,922.0,813.0,722.0,657.0,596.0,541.0,497.0,459.0,421.0,398.0,352.0,328.0,309.0,304.0,1988-12-27,경기도 성남시 중원구 상대원동 2511,경기도 성남시 중원구 금상로58번길 22,37.43846881,127.1641844
B000004500,1091173648,경기,경기도교육청,황룡초등학교,989.0,925.0,838.0,755.0,688.0,643.0,619.0,571.0,528.0,500.0,484.0,427.0,396.0,385.0,357.0,1995-03-01,경기도 고양시 일산서구 탄현동 1474,경기도 고양시 일산서구 탄현로 75,37.69844738,126.7680071
B000004600,1095053195,경기,경기도교육청,남양주월문초등학교,64.0,89.0,104.0,118.0,123.0,117.0,102.0,117.0,115.0,116.0,99.0,105.0,106.0,107.0,97.0,1975-03-01,경기도 남양주시 와부읍 월문리 269-1,경기도 남양주시 와부읍 수레로 519,37.60948839,127.2616036
B000004618,1098245024,경기,경기도교육청,토평초등학교,681.0,658.0,596.0,548.0,523.0,500.0,476.0,472.0,441.0,446.0,437.0,395.0,398.0,357.0,316.0,1972-03-01,경기도 구리시 토평동 611-3,경기도 구리시 벌말로129번길 17-1,37.58782449,127.1463829
B000003678,1101485133,경기,경기도교육청,매산초등학교,387.0,351.0,346.0,344.0,343.0,337.0,339.0,309.0,297.0,281.0,260.0,252.0,239.0,249.0,532.0,1945-04-26,경기도 수원시 팔달구 매산로3가 13,경기도 수원시 팔달구 향교로 93,37.27214613,127.0107555
B000004804,1107466995,경기,경기도교육청,방일초등학교,81.0,76.0,74.0,78.0,69.0,57.0,62.0,63.0,61.0,55.0,59.0,53.0,52.0,52.0,52.0,1943-04-01,경기도 가평군 설악면 방일리 50,경기도 가평군 설악면 양방가루재길 76,37.62929786,127.4994479
B000004705,1110791325,경기,경기도교육청,웅담초등학교,59.0,59.0,58.0,52.0,40.0,40.0,42.0,41.0,50.0,51.0,57.0,46.0,53.0,51.0,53.0,1959-04-08,경기도 파주시 법원읍 웅담리 387-1,경기도 파주시 법원읍 수작골길 14,37.9142217,126.8957052
B000003839,1120972990,경기,경기도교육청,안양양지초등학교,692.0,646.0,573.0,518.0,482.0,451.0,429.0,400.0,371.0,378.0,363.0,365.0,363.0,355.0,341.0,1989-05-01,경기도 안양시 만안구 안양동 977-1,경기도 안양시 만안구 병목안로130번길 69,37.39224518,126.9045522
B000003917,1128040075,경기,경기도교육청,안산부곡초등학교,1507.0,1332.0,1240.0,1078.0,1013.0,972.0,982.0,916.0,905.0,884.0,888.0,826.0,751.0,753.0,711.0,1997-03-01,경기도 안산시 상록구 부곡동 680,경기도 안산시 상록구 부곡로 73,37.32919304,126.8604687
B000003705,1139975368,경기,경기도교육청,소화초등학교,616.0,593.0,567.0,538.0,510.0,502.0,506.0,501.0,502.0,502.0,501.0,505.0,504.0,506.0,504.0,1934-10-02,경기도 수원시 영통구 원천동 51-26,경기도 수원시 영통구 광교중앙로 30,37.27820749,127.0528005
B000003751,1141746163,경기,경기도교육청,구미초등학교,1132.0,1034.0,951.0,862.0,792.0,725.0,682.0,623.0,586.0,578.0,583.0,590.0,581.0,580.0,583.0,1995-07-01,경기도 성남시 분당구 구미동 215,경기도 성남시 분당구 미금로22번길 25,37.337764,127.118307
B000004134,1150747120,경기,경기도교육청,팽성초등학교,108.0,105.0,110.0,103.0,98.0,95.0,99.0,80.0,76.0,87.0,74.0,73.0,82.0,110.0,112.0,1943-04-01,경기도 평택시 팽성읍 송화리 233-1,경기도 평택시 팽성읍 송화2길 2,36.95068718,127.0517616
B000003853,1154367029,경기,경기도교육청,안양중앙초등학교,831.0,898.0,840.0,834.0,770.0,742.0,715.0,661.0,610.0,569.0,579.0,568.0,525.0,672.0,743.0,1984-09-04,경기도 안양시 동안구 비산동 423,경기도 안양시 동안구 경수대로883번길 11,37.39553138,126.9377855
B000004582,1170536994,경기,경기도교육청,차산초등학교,206.0,419.0,500.0,574.0,603.0,645.0,655.0,637.0,647.0,659.0,638.0,622.0,586.0,516.0,465.0,2009-03-01,경기도 남양주시 화도읍 차산리 79-9,경기도 남양주시 화도읍 수레로 1105-23,37.636366,127.3017247
B000003789,1171584129,경기,경기도교육청,약대초등학교,488.0,446.0,403.0,448.0,428.0,417.0,412.0,398.0,400.0,393.0,375.0,341.0,301.0,284.0,251.0,1949-10-01,경기도 부천시 원미구 약대동 112,경기도 부천시 원미구 수도로66번길 14,37.51360773,126.7727484
B000024066,1177504301,경기,경기도교육청,현촌초등학교,0.0,0.0,0.0,0.0,0.0,0.0,0.0,873.0,1000.0,1138.0,1164.0,1187.0,1199.0,1213.0,1259.0,2015-11-02,경기도 평택시 용이동 593-1,경기도 평택시 현촌3길 10,37.00056185,127.131904
B000004484,1183311820,경기,경기도교육청,벽제초등학교,510.0,483.0,473.0,449.0,418.0,428.0,424.0,443.0,412.0,418.0,411.0,350.0,323.0,297.0,267.0,1945-09-24,경기도 고양시 일산동구 사리현동 122-2,경기도 고양시 일산동구 공릉천로 13,37.69562939,126.8432728
B000004722,1212250709,경기,경기도교육청,동두천초등학교,647.0,561.0,463.0,384.0,316.0,300.0,277.0,249.0,238.0,255.0,246.0,264.0,275.0,263.0,243.0,1923-09-01,경기도 동두천시 생연동 469-2,경기도 동두천시 평화로2460번길 4,37.90840304,127.0598828
B000004255,1215336859,경기,경기도교육청,성산초등학교,363.0,314.0,278.0,231.0,197.0,169.0,137.0,146.0,145.0,149.0,150.0,136.0,150.0,144.0,151.0,1979-11-14,경기도 오산시 오산동 524-1,경기도 오산시 성호대로 43,37.1504447,127.0670421
B000003800,1232424676,경기,경기도교육청,중흥초등학교,1058.0,994.0,919.0,914.0,878.0,865.0,881.0,927.0,942.0,936.0,912.0,897.0,839.0,842.0,808.0,1992-03-21,경기도 부천시 원미구 중동 1053,경기도 부천시 원미구 계남로 214,37.50668196,126.7732474
B000004583,1233173012,경기,경기도교육청,마석초등학교,1396.0,1325.0,1185.0,1070.0,1012.0,946.0,923.0,862.0,817.0,888.0,878.0,834.0,787.0,737.0,688.0,1925-10-02,경기도 남양주시 화도읍 창현리 517-1,경기도 남양주시 화도읍 수레로 1234-52,37.64953342,127.3050515
B000025946,1244488716,경기,경기도교육청,향동초등학교,0.0,0.0,0.0,0.0,0.0,0.0,0.0,0.0,0.0,0.0,0.0,226.0,596.0,738.0,841.0,2019-09-01,경기도 고양시 덕양구 향동동 85-2,경기도 고양시 덕양구 향동1로 37,37.60347891,126.8954668
B000004089,1256018459,경기,경기도교육청,냉정초등학교,1424.0,1289.0,1204.0,1122.0,1087.0,1047.0,981.0,897.0,844.0,813.0,753.0,665.0,605.0,562.0,549.0,1996-03-01,경기도 시흥시 정왕동 1872-3,경기도 시흥시 역전로 369,37.35779542,126.7351716
B000022583,1268024563,경기,경기도교육청,안산대월초등학교,0.0,417.0,514.0,556.0,660.0,783.0,892.0,897.0,910.0,862.0,804.0,684.0,627.0,557.0,519.0,2009-10-04,경기도 안산시 단원구 신길동 1551,경기도 안산시 단원구 신길로 67,37.33588759,126.7873808
B000024041,1269139826,경기,경기도교육청,옥길산들초등학교,0.0,0.0,0.0,0.0,0.0,0.0,0.0,0.0,444.0,1457.0,1697.0,1828.0,1971.0,2042.0,2004.0,2016-11-01,경기도 부천시 소사구 옥길동 770,경기도 부천시 소사구 옥길로 31,37.46254007,126.8164547
B000004015,1294627785,경기,경기도교육청,포곡초등학교,1165.0,1015.0,920.0,881.0,818.0,758.0,718.0,686.0,704.0,748.0,728.0,730.0,762.0,771.0,728.0,1933-09-01,경기도 용인시 처인구 포곡읍 전대리 167-1,경기도 용인시 처인구 포곡읍 부곡로 24,37.28217962,127.2202404
B000004637,1295727491,경기,경기도교육청,의정부초등학교,958.0,855.0,801.0,710.0,644.0,638.0,566.0,533.0,504.0,488.0,437.0,387.0,381.0,348.0,292.0,1945-09-30,경기도 의정부시 신곡동 420-3,경기도 의정부시 동일로522번길 30,37.73474849,127.0602214
B000004597,1298087298,경기,경기도교육청,예봉초등학교,682.0,759.0,858.0,938.0,963.0,979.0,963.0,945.0,887.0,864.0,812.0,744.0,682.0,655.0,603.0,2007-09-01,경기도 남양주시 와부읍 덕소리 252,경기도 남양주시 와부읍 수레로 108,37.59204603,127.2209856
B000003787,1300524353,경기,경기도교육청,송내초등학교,417.0,352.0,325.0,288.0,271.0,291.0,290.0,295.0,284.0,268.0,272.0,232.0,212.0,197.0,168.0,1992-05-04,경기도 부천시 원미구 상동 430,경기도 부천시 원미구 석천로 27,37.4906788,126.7587493
B000004441,1311128735,경기,경기도교육청,북내초등학교,218.0,186.0,179.0,156.0,127.0,124.0,116.0,113.0,133.0,113.0,120.0,117.0,117.0,109.0,103.0,1919-10-23,경기도 여주시 북내면 당우리 175,경기도 여주시 북내면 여양2로 304,37.32941704,127.6806122
B000004048,1311183989,경기,경기도교육청,태을초등학교,941.0,883.0,822.0,783.0,709.0,659.0,612.0,598.0,581.0,554.0,488.0,464.0,446.0,416.0,404.0,1994-10-01,경기도 군포시 산본동 1089,경기도 군포시 산본로 451-49,37.37205306,126.9263632
B000004619,1320151686,경기,경기도교육청,도림초등학교,513.0,457.0,423.0,376.0,332.0,313.0,293.0,263.0,230.0,212.0,177.0,155.0,138.0,144.0,141.0,1996-09-01,경기도 구리시 교문동 396-1,경기도 구리시 아차산로 431,37.5932866,127.1299671
B000024682,1322152078,경기,경기도교육청,여울초등학교,0.0,0.0,0.0,0.0,0.0,0.0,0.0,0.0,0.0,0.0,0.0,0.0,353.0,880.0,989.0,2021-03-01,경기도 화성시 오산동 987,경기도 화성시 동탄감배산로 95,37.19510443,127.088947
B000003641,1325481235,경기,경기도교육청,안룡초등학교,631.0,602.0,567.0,489.0,458.0,421.0,406.0,370.0,363.0,379.0,379.0,370.0,346.0,561.0,620.0,1924-04-24,경기도 수원시 권선구 곡반정동 606,경기도 수원시 권선구 곡반정로33번길 21,37.23332545,127.0247048
B000004595,1338098883,경기,경기도교육청,양오초등학교,770.0,1180.0,1240.0,1280.0,1371.0,1379.0,1403.0,1429.0,1364.0,1333.0,1251.0,1200.0,1105.0,1008.0,932.0,2006-03-01,경기도 남양주시 오남읍 양지리 616-5,경기도 남양주시 오남읍 양지로 261-35,37.69759593,127.192346
B000004687,1351013183,경기,경기도교육청,와석초등학교,353.0,383.0,386.0,1103.0,487.0,533.0,587.0,645.0,711.0,1002.0,1245.0,1344.0,1371.0,1480.0,1500.0,2006-03-01,경기도 파주시 야당동 1008,경기도 파주시 한빛로 7,37.710475,126.753037
B000004112,1357901632,경기,경기도교육청,용이초등학교,0.0,119.0,456.0,634.0,679.0,758.0,830.0,852.0,858.0,1060.0,1164.0,1138.0,1133.0,1127.0,1092.0,2010-03-01,경기도 평택시 용이동 482,경기도 평택시 현신7길 36,37.00008904,127.1467153
B000004474,1360881030,경기,경기도교육청,수입초등학교,62.0,106.0,123.0,127.0,137.0,128.0,128.0,104.0,85.0,84.0,85.0,69.0,86.0,88.0,79.0,1948-07-01,경기도 양평군 서종면 수입리 673,경기도 양평군 서종면 무드리2길 20,37.64453129,127.3757399755
B000004104,1371454298,경기,경기도교육청,시흥장현초등학교,701.0,642.0,600.0,581.0,553.0,545.0,529.0,490.0,449.0,423.0,395.0,458.0,467.0,480.0,595.0,2003-03-01,경기도 시흥시 장현동 169-6,경기도 시흥시 시청로80번길 5,37.38175778,126.7991022
B000004339,1373597383,경기,경기도교육청,신곡초등학교,825.0,894.0,934.0,888.0,885.0,858.0,886.0,908.0,890.0,929.0,955.0,963.0,877.0,859.0,836.0,2008-03-01,경기도 김포시 고촌읍 신곡리 1267,경기도 김포시 고촌읍 수기로 67-30,37.59671156,126.7664388
B000004716,1374278664,경기,경기도교육청,동두천송내초등학교,784.0,743.0,695.0,646.0,597.0,584.0,574.0,557.0,557.0,559.0,544.0,514.0,466.0,426.0,373.0,2003-03-01,경기도 동두천시 송내동 665-4,경기도 동두천시 중앙로 52,37.88614275,127.0525334
B000003769,1391321957,경기,경기도교육청,하탑초등학교,820.0,814.0,787.0,736.0,689.0,673.0,653.0,646.0,658.0,685.0,704.0,702.0,716.0,718.0,661.0,1993-07-01,경기도 성남시 분당구 야탑동 531,경기도 성남시 분당구 양현로 262,37.4073264,127.1266127
B000004736,1397350490,경기,경기도교육청,고암초등학교,800.0,756.0,747.0,681.0,634.0,575.0,546.0,516.0,509.0,463.0,432.0,384.0,326.0,314.0,285.0,2000-09-01,경기도 양주시 덕정동 208-13,경기도 양주시 고암길 320,37.83516678,127.0681674
B000004058,1402501404,경기,경기도교육청,곡란초등학교,669.0,607.0,586.0,566.0,526.0,481.0,482.0,450.0,439.0,363.0,355.0,354.0,339.0,289.0,284.0,1994-09-01,경기도 군포시 산본동 1058,경기도 군포시 고산로677번길 24-42,37.37424391,126.9338506
B000004497,1415368497,경기,경기도교육청,안곡초등학교,1000.0,972.0,955.0,922.0,863.0,827.0,762.0,715.0,705.0,647.0,587.0,536.0,515.0,485.0,433.0,2003-11-01,경기도 고양시 일산동구 중산동 1830,경기도 고양시 일산동구 중산로 142,37.684751,126.7818546
B000026725,1429267168,경기,경기도교육청,해밀초등학교,0.0,0.0,0.0,0.0,0.0,0.0,579.0,757.0,846.0,924.0,950.0,916.0,865.0,769.0,680.0,2015-05-06,경기도 남양주시 진접읍 금곡리 1077-2,경기도 남양주시 진접읍 해밀예당3로 103,37.71881988,127.1961737
B000004088,1430127620,경기,경기도교육청,시흥초등학교,1369.0,1263.0,1162.0,1058.0,986.0,937.0,908.0,883.0,849.0,844.0,819.0,731.0,679.0,670.0,630.0,1997-02-14,경기도 시흥시 정왕동 1871-4,경기도 시흥시 정왕대로143번길 15,37.351934,126.7320864
B000003706,1436951696,경기,경기도교육청,매원초등학교,0.0,0.0,0.0,0.0,148.0,310.0,558.0,641.0,708.0,789.0,1332.0,1381.0,1402.0,1405.0,1354.0,1969-03-01,경기도 수원시 영통구 원천동 595,경기도 수원시 영통구 광교호수공원로 100,37.27438801,127.0637213
B000030422,1441815078,경기,경기도교육청,복사초등학교,401.0,316.0,261.0,207.0,181.0,175.0,173.0,161.0,147.0,156.0,149.0,136.0,144.0,133.0,124.0,1989-09-01,경기도 부천시 소사구 계수동 1,경기도 부천시 소사구 은성로 210,37.46731,126.807979
B000004047,1442196488,경기,경기도교육청,궁내초등학교,883.0,827.0,812.0,735.0,681.0,663.0,694.0,697.0,698.0,693.0,655.0,641.0,619.0,570.0,563.0,1994-02-28,경기도 군포시 산본동 1149-3,경기도 군포시 수리산로 187,37.36461098,126.9201699912
B000004743,1456019520,경기,경기도교육청,회정초등학교,534.0,519.0,466.0,420.0,356.0,340.0,331.0,314.0,298.0,276.0,280.0,261.0,258.0,245.0,221.0,2001-09-01,경기도 양주시 회정동 344-1,경기도 양주시 평화로 1567,37.83020916,127.0521646
B000003879,1460631847,경기,경기도교육청,문원초등학교,1709.0,1682.0,1615.0,1548.0,1435.0,1376.0,1388.0,1344.0,1264.0,1236.0,1224.0,1307.0,1657.0,1820.0,1745.0,1981-12-30,경기도 과천시 별양동 16,경기도 과천시 코오롱로 53,37.4240169,126.995027
B000004748,1463432073,경기,경기도교육청,송추초등학교,359.0,344.0,318.0,286.0,274.0,255.0,221.0,188.0,158.0,167.0,165.0,150.0,146.0,152.0,149.0,1928-07-20,경기도 양주시 장흥면 교현리 119,경기도 양주시 장흥면 호국로 499,37.71620385,126.9704422
B000004030,1468865692,경기,경기도교육청,남촌초등학교,84.0,79.0,85.0,76.0,76.0,67.0,68.0,67.0,61.0,56.0,41.0,38.0,41.0,41.0,41.0,1968-03-02,경기도 용인시 처인구 남사면 진목리 141-5,경기도 용인시 처인구 남사읍 천덕산로 330,37.10155426,127.137611
B000027528,1487836956,경기,경기도교육청,종덕초등학교,40.0,33.0,47.0,60.0,68.0,65.0,61.0,54.0,52.0,50.0,55.0,666.0,1061.0,1310.0,1413.0,1955-04-01,경기도 평택시 고덕면 여염리 4246,경기도 평택시 고덕국제2로 111,37.05294406,127.046277
B000004640,1501120328,경기,경기도교육청,의정부효자초등학교,797.0,812.0,799.0,775.0,733.0,682.0,622.0,573.0,525.0,490.0,459.0,421.0,397.0,370.0,356.0,2005-09-01,경기도 의정부시 신곡동 784-1,경기도 의정부시 부용로204번길 16,37.75027839,127.0779303
B000004522,1514238476,경기,경기도교육청,주엽초등학교,1173.0,1131.0,973.0,855.0,743.0,674.0,669.0,625.0,640.0,631.0,613.0,562.0,477.0,445.0,389.0,1994-03-01,경기도 고양시 일산서구 주엽동 100,경기도 고양시 일산서구 강선로 29,37.66738993,126.7615108
B000004713,1515576899,경기,경기도교육청,적암초등학교,56.0,54.0,51.0,47.0,53.0,51.0,55.0,49.0,53.0,50.0,44.0,44.0,35.0,30.0,18.0,1960-04-01,경기도 파주시 적성면 적암리 83-2,경기도 파주시 적성면 율곡로 3042,37.987808,127.0039182
B000022565,1516669094,경기,경기도교육청,원흥초등학교,0.0,0.0,0.0,0.0,0.0,0.0,0.0,0.0,0.0,0.0,0.0,0.0,242.0,350.0,425.0,2020-09-01,경기도 고양시 덕양구 원흥동 618,경기도 고양시 덕양구 원흥1로 26,37.65103799,126.8687604
B000003814,1519677460,경기,경기도교육청,부천덕산초등학교,1031.0,966.0,898.0,808.0,758.0,736.0,729.0,745.0,741.0,755.0,784.0,717.0,696.0,631.0,553.0,1988-11-25,경기도 부천시 오정구 오정동 113-2,경기도 부천시 오정구 오정로252번길 91,37.52986362,126.7907569
B000003969,1524350941,경기,경기도교육청,독정초등학교,1128.0,1137.0,1087.0,1069.0,1030.0,1098.0,1131.0,1145.0,1179.0,1188.0,1227.0,1130.0,1105.0,1073.0,992.0,2004-03-01,경기도 용인시 기흥구 보정동 1256,경기도 용인시 기흥구 보정로 100,37.31886937,127.116276
B000003965,1526866853,경기,경기도교육청,동백초등학교,2066.0,2039.0,1943.0,1835.0,1736.0,1692.0,1706.0,1661.0,1614.0,1612.0,1548.0,1516.0,1391.0,1363.0,1283.0,2006-03-01,경기도 용인시 기흥구 동백동 658,경기도 용인시 기흥구 동백평촌로 69,37.28055206,127.156367
B000003852,1528281450,경기,경기도교육청,샘모루초등학교,1345.0,1272.0,1228.0,1177.0,1108.0,1023.0,994.0,935.0,900.0,887.0,867.0,839.0,808.0,786.0,795.0,2004-03-01,경기도 안양시 동안구 비산동 405,경기도 안양시 동안구 관악대로 155,37.399621,126.9408353
B000004114,1546132624,경기,경기도교육청,소사벌초등학교,1923.0,1853.0,1772.0,1670.0,1577.0,1509.0,1460.0,1317.0,1348.0,1357.0,1061.0,943.0,807.0,801.0,746.0,1997-05-16,경기도 평택시 비전동 879-3,경기도 평택시 동부공원로 59,36.99531759,127.116892
B000003637,1548652827,경기,경기도교육청,영화초등학교,1176.0,1134.0,1034.0,946.0,859.0,766.0,745.0,733.0,709.0,672.0,652.0,580.0,552.0,530.0,570.0,1954-09-20,경기도 수원시 장안구 조원동 556,경기도 수원시 장안구 경수대로 838,37.29686206,127.0163697
B000024134,1550710618,경기,경기도교육청,산현초등학교,0.0,0.0,0.0,0.0,0.0,0.0,0.0,0.0,0.0,516.0,870.0,948.0,958.0,1005.0,1053.0,2018-03-01,경기도 시흥시 산현동 515,경기도 시흥시 목감남서로 68,37.374771,126.8449948
B000003864,1560684680,경기,경기도교육청,안양덕현초등학교,1114.0,969.0,879.0,766.0,640.0,574.0,535.0,460.0,401.0,266.0,277.0,468.0,510.0,538.0,550.0,1991-09-10,경기도 안양시 동안구 호계동 1101,경기도 안양시 동안구 갈산로 34,37.37549471,126.9623993
B000004603,1579162955,경기,경기도교육청,심석초등학교,359.0,389.0,393.0,392.0,408.0,426.0,417.0,434.0,446.0,428.0,456.0,462.0,472.0,490.0,524.0,1987-03-07,경기도 남양주시 화도읍 마석우리 215-1,경기도 남양주시 화도읍 마석로76번길 10,37.65730263,127.3068672
B000003748,1591026902,경기,경기도교육청,운중초등학교,125.0,357.0,408.0,485.0,508.0,560.0,604.0,674.0,710.0,717.0,759.0,711.0,717.0,674.0,596.0,2009-05-01,경기도 성남시 분당구 운중동 893,경기도 성남시 분당구 운중로45번길 8,37.39241921,127.0689381
B000004220,1591306924,경기,경기도교육청,해운초등학교,59.0,73.0,76.0,88.0,75.0,80.0,75.0,61.0,54.0,42.0,42.0,39.0,36.0,34.0,32.0,1960-04-01,경기도 화성시 서신면 궁평리 162-4,경기도 화성시 서신면 궁평항로 1374-6,37.14005466,126.7037872
B000004586,1596221804,경기,경기도교육청,주곡초등학교,0.0,160.0,655.0,714.0,759.0,820.0,900.0,942.0,1004.0,1002.0,1033.0,957.0,905.0,855.0,771.0,2010-03-01,경기도 남양주시 진접읍 금곡리 1004,경기도 남양주시 진접읍 해밀예당1로 277,37.72470084,127.205968
B000003900,1601220369,경기,경기도교육청,능길초등학교,162.0,140.0,130.0,118.0,117.0,128.0,131.0,112.0,109.0,85.0,82.0,75.0,78.0,79.0,80.0,1998-01-15,경기도 안산시 단원구 신길동 1417-22,경기도 안산시 단원구 신길중앙로3길 8,37.33598504,126.7642474
B000003993,1615749359,경기,경기도교육청,동천초등학교,694.0,682.0,641.0,604.0,547.0,513.0,499.0,457.0,439.0,423.0,694.0,904.0,976.0,1051.0,1149.0,2001-10-02,경기도 용인시 수지구 동천동 154,경기도 용인시 수지구 고기로 71,37.34461156,127.0933932
B000003858,1628850877,경기,경기도교육청,동안초등학교,969.0,961.0,896.0,850.0,768.0,740.0,705.0,643.0,630.0,600.0,565.0,538.0,527.0,524.0,493.0,1992-09-01,경기도 안양시 동안구 평촌동 898-1,경기도 안양시 동안구 관평로138번길 36,37.389519,126.9649077
B000004751,1636681318,경기,경기도교육청,효촌초등학교,43.0,57.0,55.0,66.0,75.0,66.0,69.0,70.0,63.0,57.0,53.0,54.0,54.0,56.0,57.0,1958-04-01,경기도 양주시 광적면 덕도리 755,경기도 양주시 광적면 화합로 248번길18,37.85794102,126.963233
B000004061,1643117547,경기,경기도교육청,왕곡초등학교,500.0,471.0,456.0,440.0,436.0,434.0,442.0,427.0,416.0,397.0,394.0,379.0,375.0,368.0,358.0,1997-03-01,경기도 의왕시 왕곡동 604,경기도 의왕시 왕곡로 58,37.34518014,126.9804912
B000003927,1645866811,경기,경기도교육청,매화초등학교,1391.0,1244.0,1126.0,1012.0,884.0,866.0,819.0,741.0,731.0,685.0,639.0,559.0,497.0,468.0,447.0,1996-03-01,경기도 안산시 상록구 이동 608,경기도 안산시 상록구 안산대학로 35,37.305911,126.862365
B000004143,1654637098,경기,경기도교육청,현화초등학교,1381.0,1294.0,1214.0,1161.0,1109.0,1042.0,982.0,960.0,932.0,887.0,875.0,834.0,742.0,700.0,636.0,1998-01-15,경기도 평택시 안중읍 현화리 826-1,경기도 평택시 안중읍 안현로서7길 80,36.98236685,126.918914
B000004632,1656288802,경기,경기도교육청,회룡초등학교,1147.0,1023.0,930.0,869.0,814.0,748.0,752.0,732.0,737.0,727.0,712.0,669.0,655.0,628.0,557.0,1995-11-01,경기도 의정부시 호원동 274-27,경기도 의정부시 안말로 57,37.71538947,127.044923
B000004041,1663685262,경기,경기도교육청,광정초등학교,1061.0,973.0,903.0,851.0,800.0,757.0,722.0,693.0,641.0,623.0,602.0,587.0,553.0,520.0,502.0,1993-06-01,경기도 군포시 산본동 1092-2,경기도 군포시 산본로386번길 5-20,37.36593675,126.9305979
B000004152,1668624281,경기,경기도교육청,효덕초등학교,808.0,739.0,678.0,601.0,523.0,520.0,526.0,514.0,476.0,450.0,436.0,404.0,409.0,506.0,495.0,1948-05-01,경기도 평택시 고덕면 방축리 643-1,경기도 평택시 고덕면 효덕새싹길 6-5,37.016709,127.0355926
B000024670,1677228808,경기,경기도교육청,아인초등학교,0.0,0.0,0.0,0.0,0.0,0.0,634.0,908.0,965.0,1106.0,1116.0,1111.0,1138.0,1254.0,1240.0,2015-04-06,경기도 화성시 청계동 515,경기도 화성시 동탄대로시범길 219,37.200839,127.1052936
B000027218,1678712069,경기,경기도교육청,다산새봄초등학교,0.0,0.0,0.0,0.0,0.0,0.0,0.0,0.0,0.0,0.0,759.0,1352.0,1524.0,1697.0,1781.0,2019-03-01,경기도 남양주시 다산동 6128,경기도 남양주시 다산순환로 417,37.619916,127.1592158
B000004280,1688678085,경기,경기도교육청,하일초등학교,1233.0,1126.0,1056.0,986.0,897.0,847.0,816.0,746.0,668.0,581.0,535.0,442.0,380.0,367.0,337.0,1992-07-10,경기도 광명시 하안동 23,경기도 광명시 철망산로 68,37.46908545,126.8764178
B000004115,1691842019,경기,경기도교육청,평택성동초등학교,879.0,791.0,680.0,588.0,517.0,492.0,456.0,423.0,419.0,428.0,392.0,352.0,316.0,297.0,272.0,1913-06-03,경기도 평택시 비전동 611-1,경기도 평택시 중앙로 89,36.99536292,127.0933789
B000003809,1693582773,경기,경기도교육청,부천수주초등학교,1137.0,996.0,889.0,790.0,715.0,693.0,615.0,597.0,552.0,534.0,482.0,468.0,453.0,415.0,409.0,1996-11-01,경기도 부천시 오정구 고강동 275-2,경기도 부천시 오정구 고강로 99,37.53127063,126.8149996
B000004788,1693827927,경기,경기도교육청,관인초등학교,134.0,105.0,83.0,69.0,56.0,51.0,48.0,41.0,45.0,44.0,41.0,38.0,32.0,32.0,22.0,1930-04-01,경기도 포천시 관인면 탄동리 664-1,경기도 포천시 관인면 관인로 5,38.15606601,127.2497002
B000003923,1697956383,경기,경기도교육청,경수초등학교,649.0,607.0,584.0,523.0,489.0,425.0,397.0,346.0,311.0,292.0,247.0,188.0,170.0,132.0,101.0,2000-03-01,경기도 안산시 상록구 성포동 594-3,경기도 안산시 상록구 삼일로 670,37.32700744,126.8507556
B000003807,1699625253,경기,경기도교육청,동산초등학교,561.0,561.0,522.0,473.0,455.0,451.0,435.0,411.0,391.0,394.0,392.0,347.0,350.0,361.0,382.0,2006-09-01,경기도 부천시 오정구 오정동 727,경기도 부천시 오정구 오정로251번길 50,37.53145027,126.7851807
B000023079,1701307535,경기,경기도교육청,미사강변초등학교,0.0,0.0,0.0,0.0,0.0,0.0,231.0,297.0,1371.0,1553.0,1644.0,1640.0,1617.0,1571.0,1465.0,2014-09-01,경기도 하남시 선동 424,경기도 하남시 미사강변북로55번길 70,37.57582425,127.1860041
B000004365,1701412141,경기,경기도교육청,이천가산초등학교,443.0,404.0,342.0,290.0,249.0,262.0,236.0,217.0,228.0,227.0,227.0,240.0,216.0,214.0,188.0,1936-04-10,경기도 이천시 부발읍 가산리 305-1,경기도 이천시 부발읍 황무로2065번길 112,37.24160247,127.5178501
B000003669,1702535450,경기,경기도교육청,화서초등학교,1065.0,1074.0,843.0,709.0,618.0,560.0,540.0,518.0,463.0,463.0,461.0,438.0,389.0,368.0,353.0,1969-11-03,경기도 수원시 팔달구 화서동 104-2,경기도 수원시 팔달구 팔달로127번길 54-11,37.28119982,127.0005411
B000004584,1717508614,경기,경기도교육청,창현초등학교,1189.0,1119.0,1028.0,986.0,933.0,890.0,853.0,854.0,875.0,883.0,966.0,939.0,854.0,825.0,778.0,1998-03-01,경기도 남양주시 화도읍 창현리 766,경기도 남양주시 화도읍 녹촌로 12,37.64594218,127.301851
B000024702,1719574987,경기,경기도교육청,청림초등학교,0.0,0.0,0.0,0.0,0.0,0.0,0.0,0.0,0.0,0.0,695.0,1181.0,1320.0,1443.0,1528.0,2019-03-01,경기도 화성시 산척동 704,경기도 화성시 동탄산척로 93-22,37.17458716,127.1113568
B000004031,1721919238,경기,경기도교육청,남사초등학교,175.0,162.0,133.0,127.0,122.0,108.0,101.0,98.0,94.0,76.0,86.0,98.0,103.0,100.0,115.0,1934-03-03,경기도 용인시 처인구 남사면 봉무리 761-1,경기도 용인시 처인구 남사면 처인성로185번길 9-10,37.113213,127.148357
B000004608,1734565317,경기,경기도교육청,도제원초등학교,714.0,664.0,585.0,549.0,510.0,495.0,635.0,667.0,699.0,702.0,709.0,668.0,623.0,613.0,600.0,2000-05-01,경기도 남양주시 퇴계원읍 퇴계원리 189,경기도 남양주시 퇴계원읍 경춘북로558번길 10-1,37.64597684,127.145768
B000004742,1749335169,경기,경기도교육청,천보초등학교,413.0,369.0,328.0,304.0,279.0,254.0,242.0,233.0,245.0,233.0,235.0,227.0,240.0,254.0,530.0,1947-03-01,경기도 양주시 옥정동 1014-8,경기도 양주시 옥정동로9가길 31-15,37.83354893,127.0949733
B000004244,1750380694,경기,경기도교육청,가수초등학교,402.0,428.0,583.0,612.0,605.0,615.0,635.0,646.0,624.0,656.0,599.0,553.0,523.0,481.0,453.0,2006-05-01,경기도 오산시 가수동 25,경기도 오산시 가수로 50,37.1481039,127.0479561
B000004343,1752903580,경기,경기도교육청,통진초등학교,683.0,677.0,605.0,537.0,506.0,492.0,457.0,403.0,393.0,364.0,401.0,371.0,379.0,399.0,374.0,2006-03-01,경기도 김포시 통진읍 서암리 1108,경기도 김포시 통진읍 조강로 116,37.69388578,126.594437
B000004359,1760367095,경기,경기도교육청,안흥초등학교,836.0,874.0,859.0,817.0,766.0,736.0,749.0,742.0,715.0,698.0,841.0,826.0,815.0,897.0,921.0,2002-03-02,경기도 이천시 안흥동 344-1,경기도 이천시 영창로300번길 16,37.280244,127.4560778
B000004329,1779570639,경기,경기도교육청,운양초등학교,895.0,839.0,801.0,725.0,771.0,764.0,739.0,741.0,696.0,945.0,1189.0,1263.0,1276.0,1312.0,1317.0,2001-01-23,경기도 김포시 운양동 273-3,경기도 김포시 전원로 38번길 99,37.64621086,126.690086
B000004170,1794201552,경기,경기도교육청,숲속초등학교,0.0,459.0,520.0,617.0,689.0,745.0,768.0,742.0,745.0,751.0,694.0,648.0,668.0,672.0,646.0,2010-05-01,경기도 화성시 반송동 56,경기도 화성시 동탄공원로2길 10,37.20611415,127.060485
B000004755,1801300287,경기,경기도교육청,은현초등학교,215.0,198.0,175.0,160.0,142.0,131.0,128.0,122.0,111.0,97.0,80.0,74.0,61.0,53.0,48.0,1935-09-01,경기도 양주시 은현면 선암리 553-2,경기도 양주시 은현면 화합로 912,37.8631857,127.0242854
B000004367,1801427423,경기,경기도교육청,신하초등학교,2002.0,1765.0,1616.0,1472.0,1315.0,1244.0,1121.0,1049.0,1018.0,964.0,935.0,856.0,814.0,751.0,695.0,1959-04-04,경기도 이천시 부발읍 신하리 374-2,경기도 이천시 부발읍 경충대로2250번길 12,37.26109025,127.4792851
B000004574,1803077518,경기,경기도교육청,용신초등학교,741.0,660.0,611.0,505.0,443.0,426.0,426.0,416.0,396.0,367.0,327.0,286.0,259.0,218.0,188.0,2000-05-06,경기도 남양주시 진건읍 신월리 87,경기도 남양주시 진건읍 사릉로 474,37.66100507,127.1733424
B000003850,1824255704,경기,경기도교육청,안양서초등학교,997.0,922.0,821.0,788.0,778.0,748.0,765.0,717.0,728.0,685.0,670.0,616.0,571.0,527.0,480.0,1972-11-25,경기도 안양시 만안구 안양동 931,경기도 안양시 만안구 양화로37번길 32,37.3969151,126.911039
B000004049,1841863334,경기,경기도교육청,군포화산초등학교,624.0,579.0,496.0,473.0,432.0,411.0,395.0,378.0,371.0,371.0,345.0,328.0,288.0,273.0,258.0,1992-04-01,경기도 군포시 금정동 871-5,경기도 군포시 오금로 48,37.35326066,126.934562
B000003848,1842453956,경기,경기도교육청,안양초등학교,1960.0,1770.0,1648.0,1449.0,1284.0,1202.0,1182.0,1127.0,1045.0,981.0,959.0,877.0,895.0,943.0,952.0,1927-12-20,경기도 안양시 만안구 안양동 378-1,경기도 안양시 만안구 현충로28번길 54,37.39417913,126.9279515
B000004236,1866087436,경기,경기도교육청,성호초등학교,519.0,473.0,420.0,371.0,347.0,319.0,306.0,296.0,281.0,264.0,248.0,248.0,251.0,240.0,245.0,1913-04-01,경기도 오산시 오산동 862-1,경기도 오산시 성호새싹길 8,37.15047668,127.070944
B000004025,1868384480,경기,경기도교육청,장평초등학교,54.0,79.0,72.0,61.0,57.0,50.0,50.0,39.0,38.0,36.0,24.0,19.0,28.0,30.0,30.0,1944-04-01,경기도 용인시 처인구 백암면 장평리 658,경기도 용인시 처인구 백암면 한택로 446,37.11907332,127.3776064
B000004651,1884892940,경기,경기도교육청,동오초등학교,1339.0,1229.0,1150.0,995.0,911.0,893.0,844.0,787.0,781.0,752.0,740.0,673.0,617.0,578.0,528.0,1996-03-01,경기도 의정부시 신곡동 669-3,경기도 의정부시 추동로23번길 10,37.74456302,127.0584382
B000004201,1892150998,경기,경기도교육청,제암초등학교,908.0,852.0,858.0,823.0,798.0,821.0,804.0,783.0,759.0,729.0,713.0,683.0,667.0,640.0,623.0,2003-09-01,경기도 화성시 향남읍 발안리 299,경기도 화성시 향남읍 발안서로 21,37.13115334,126.9021136
B000004820,1895126640,경기,경기도교육청,백학초등학교,117.0,99.0,84.0,69.0,58.0,46.0,55.0,55.0,57.0,61.0,55.0,55.0,43.0,44.0,39.0,1954-12-20,경기도 연천군 백학면 두일리 16,경기도 연천군 백학면 백학로40번길 23,38.03160096,126.921547
B000004811,1897694051,경기,경기도교육청,화진초등학교,63.0,65.0,65.0,57.0,61.0,75.0,99.0,97.0,129.0,126.0,124.0,119.0,115.0,110.0,91.0,1954-09-01,경기도 연천군 군남면 황지리 345-2,경기도 연천군 군남면 청정로 2289,38.0306148,127.0402975
B000004271,1910397529,경기,경기도교육청,광일초등학교,423.0,353.0,315.0,512.0,564.0,614.0,686.0,715.0,773.0,738.0,743.0,670.0,647.0,611.0,578.0,1982-02-24,경기도 광명시 광명동 365-38,경기도 광명시 목감로 34-6,37.47162377,126.8469394
B000004537,1922384858,경기,경기도교육청,행신초등학교,925.0,827.0,754.0,708.0,596.0,547.0,510.0,474.0,454.0,432.0,418.0,414.0,389.0,315.0,273.0,1988-03-01,경기도 고양시 덕양구 행신동 983-1,경기도 고양시 덕양구 중앙로 527,37.62194692,126.8364546
B000004752,1934530973,경기,경기도교육청,덕도초등학교,89.0,77.0,78.0,70.0,64.0,60.0,59.0,55.0,67.0,63.0,58.0,59.0,61.0,53.0,50.0,1971-03-01,경기도 양주시 광적면 석우리 525-14,경기도 양주시 광적면 광적로224번길 122,37.8411578,126.9776373
B000030562,1946510255,경기,경기도교육청,지제초등학교,0.0,0.0,0.0,0.0,0.0,0.0,0.0,0.0,0.0,0.0,0.0,0.0,0.0,0.0,583.0,2022-09-01,경기도 평택시 지제동 30,경기도 평택시 영신로 5,37.01918485,127.0725538
B000004769,1957021832,경기,경기도교육청,가산초등학교,408.0,365.0,327.0,285.0,247.0,234.0,202.0,180.0,169.0,152.0,139.0,127.0,141.0,131.0,123.0,1931-12-01,경기도 포천시 가산면 마산리 606-2,경기도 포천시 가산면 가산로309번길 25,37.84722928,127.1862107
B000004135,1975358486,경기,경기도교육청,평택송화초등학교,629.0,627.0,604.0,562.0,577.0,583.0,607.0,544.0,519.0,505.0,475.0,446.0,438.0,461.0,468.0,2005-05-06,경기도 평택시 팽성읍 송화리 783-6,경기도 평택시 팽성읍 송화택지로25번길 14,36.96294275,127.0569797
B000003649,1981912732,경기,경기도교육청,고색초등학교,1012.0,927.0,854.0,730.0,671.0,676.0,670.0,646.0,610.0,604.0,577.0,531.0,495.0,473.0,483.0,1950-06-01,경기도 수원시 권선구 고색동 887-59,경기도 수원시 권선구 매송고색로 681,37.25156123,126.9783835
B000003869,1994758367,경기,경기도교육청,희성초등학교,782.0,723.0,690.0,605.0,587.0,577.0,556.0,499.0,465.0,447.0,388.0,328.0,285.0,264.0,232.0,1991-03-13,경기도 안양시 동안구 비산동 1101-1,경기도 안양시 동안구 학의로 86,37.39836601,126.9487102
B000004400,2012079536,경기,경기도교육청,명덕초등학교,110.0,105.0,116.0,107.0,100.0,100.0,107.0,110.0,106.0,113.0,105.0,104.0,90.0,69.0,71.0,1946-12-11,경기도 안성시 대덕면 진현리 285-1,경기도 안성시 대덕면 미륵로 16,37.0507111,127.2626765
B000004293,2028444766,경기,경기도교육청,만선초등학교,150.0,148.0,136.0,120.0,105.0,93.0,84.0,84.0,79.0,83.0,79.0,74.0,79.0,70.0,69.0,1948-05-10,경기도 광주시 곤지암읍 만선리 8-4,경기도 광주시 곤지암읍 상탑길 9,37.36640135,127.4111165
B000004039,2035377204,경기,경기도교육청,부곡중앙초등학교,0.0,128.0,524.0,594.0,617.0,734.0,843.0,885.0,943.0,947.0,913.0,829.0,738.0,696.0,649.0,2010-03-01,경기도 군포시 부곡동 1113,경기도 군포시 송부로273번길 7,37.32314464,126.9411386
B000003953,2043854057,경기,경기도교육청,나산초등학교,1219.0,1312.0,1353.0,1378.0,1377.0,1359.0,1380.0,1327.0,1279.0,1267.0,1189.0,1073.0,986.0,930.0,826.0,2007-05-01,경기도 용인시 기흥구 보라동 613,경기도 용인시 기흥구 한보라1로43번길 8,37.250307,127.1093855
B000003626,2044669985,경기,경기도교육청,송정초등학교,779.0,727.0,684.0,638.0,623.0,534.0,498.0,482.0,517.0,560.0,582.0,547.0,543.0,538.0,541.0,1981-12-30,경기도 수원시 장안구 송죽동 404,경기도 수원시 장안구 송정로 41,37.29707655,127.0017089
B000003878,2053235888,경기,경기도교육청,청계초등학교,1508.0,1384.0,1279.0,1201.0,1096.0,1044.0,976.0,826.0,678.0,617.0,676.0,638.0,624.0,972.0,1013.0,1983-03-02,경기도 과천시 별양동 4,경기도 과천시 꿈보람길 34,37.43147178,126.9963233
B000004617,2059396922,경기,경기도교육청,내양초등학교,63.0,84.0,83.0,82.0,80.0,83.0,77.0,73.0,58.0,47.0,52.0,48.0,53.0,55.0,60.0,1972-09-23,경기도 구리시 사노동 393-2,경기도 구리시 동구릉로 485,37.64059471,127.1393169
B000026563,2070105910,경기,경기도교육청,백운호수초등학교,0.0,0.0,0.0,0.0,0.0,0.0,0.0,0.0,0.0,0.0,144.0,336.0,392.0,464.0,509.0,2019-03-01,경기도 의왕시 학의동 735,경기도 의왕시 백운중앙로 67,37.37082314,127.0075011
B000004561,2070450842,경기,경기도교육청,판곡초등학교,1420.0,1274.0,1299.0,1220.0,1166.0,1190.0,1205.0,1253.0,1230.0,1251.0,1253.0,1176.0,1134.0,1023.0,982.0,2005-05-06,경기도 남양주시 호평동 713,경기도 남양주시 늘을3로 15,37.6601779,127.2417486
B000004493,2078140735,경기,경기도교육청,일산은행초등학교,839.0,734.0,617.0,529.0,453.0,433.0,430.0,399.0,378.0,365.0,361.0,325.0,296.0,269.0,268.0,2003-03-01,경기도 고양시 일산동구 식사동 916,경기도 고양시 일산동구 은행마을로 70,37.66932912,126.8064844
B000004353,2135909080,경기,경기도교육청,개곡초등학교,90.0,76.0,82.0,80.0,68.0,69.0,76.0,81.0,73.0,77.0,77.0,88.0,86.0,102.0,92.0,1966-03-02,경기도 김포시 월곶면 개곡리 267-2,경기도 김포시 월곶면 애기봉로 445,37.73203072,126.5936415
B000004386,2143726110,경기,경기도교육청,장천초등학교,115.0,99.0,100.0,83.0,73.0,75.0,72.0,71.0,64.0,65.0,67.0,67.0,68.0,68.0,65.0,1944-04-01,경기도 이천시 설성면 장천리 360-1,경기도 이천시 설성면 설성로 165-25,37.14575302,127.5283281
B000004320,2145659983,경기,경기도교육청,김포한가람초등학교,0.0,0.0,0.0,59.0,119.0,239.0,280.0,323.0,381.0,526.0,651.0,656.0,698.0,715.0,704.0,2012-06-05,경기도 김포시 구래동 6872-3,경기도 김포시 김포한강9로 115번길 57,37.6477392,126.6218833
B000003694,2157305598,경기,경기도교육청,황곡초등학교,1523.0,1445.0,1348.0,1259.0,1136.0,1095.0,995.0,948.0,924.0,907.0,908.0,811.0,762.0,728.0,689.0,1997-12-01,경기도 수원시 영통구 영통동 948-3,경기도 수원시 영통구 영통로 518,37.2655424,127.0782969
B000003929,2169379830,경기,경기도교육청,안산해양초등학교,812.0,770.0,748.0,677.0,600.0,594.0,588.0,554.0,526.0,524.0,521.0,489.0,496.0,485.0,484.0,2005-09-01,경기도 안산시 상록구 사동 1512-1,경기도 안산시 상록구 해양2로 28,37.29452082,126.8237444
B000004581,2181105375,경기,경기도교육청,천마초등학교,1405.0,1330.0,1236.0,1154.0,1115.0,1080.0,1117.0,1046.0,989.0,999.0,941.0,894.0,848.0,819.0,767.0,2001-03-01,경기도 남양주시 화도읍 묵현리 372-5,경기도 남양주시 화도읍 경춘로 1707,37.65583217,127.280397
B000004150,2183849811,경기,경기도교육청,삼덕초등학교,73.0,62.0,58.0,52.0,51.0,68.0,73.0,82.0,103.0,71.0,80.0,102.0,111.0,116.0,94.0,1953-05-23,경기도 평택시 청북읍 삼계리 529,경기도 평택시 청북읍 청북중앙로 226,37.03955035,126.9118343
