학교ID,개방ID,시도명,시도교육청명,학교명,설립일자,소재지지번주소,소재지도로명주소,위도,경도,시군구별,2009,2010,2011,2012,2013,2014,2015,2016,2017,2018,2019,2020,2021,2022,2023,2009_해당지역예측학생수,2010_해당지역예측학생수,2011_해당지역예측학생수,2012_해당지역예측학생수,2013_해당지역예측학생수,2014_해당지역예측학생수,2015_해당지역예측학생수,2016_해당지역예측학생수,2017_해당지역예측학생수,2018_해당지역예측학생수,2019_해당지역예측학생수,2020_해당지역예측학생수,2021_해당지역예측학생수,2022_해당지역예측학생수,2023_해당지역예측학생수,2024_해당지역예측학생수,2025_해당지역예측학생수,2026_해당지역예측학생수,2027_해당지역예측학생수,2028_해당지역예측학생수,2029_해당지역예측학생수,2030_해당지역예측학생수,상관계수,2024_예측학생수,2025_예측학생수,2026_예측학생수,2027_예측학생수,2028_예측학생수,2029_예측학생수,2030_예측학생수
B000005143,1059736549,강원,강원특별자치도교육청,화동초등학교,1923-07-31,강원특별자치도 정선군 화암면 화암리 380 번지,강원특별자치도 정선군 화암면 그림바위길 66-20,37.33869626,128.7879549,정선군,58.0,54.0,50.0,44.0,38.0,32.0,34.0,43.0,44.0,44.0,41.0,35.0,31.0,24.0,18.0,2631,2455,2278,2085,1907,1838,1727,1728,1701,1659,1661,1547,1531,1442,1347,1241,1111,1053,945,877,791,737,0.860129405593414,24.58964081141576,21.367246682550114,19.929563148133134,17.252497256460135,15.566937250591952,13.435199596111602,12.096666650275104
B000005010,1110422253,강원,강원특별자치도교육청,정라초등학교,1941-06-07,강원특별자치도 삼척시 정상동 344,강원특별자치도 삼척시 정상로3길 5,37.44429121,129.1768806,삼척시,1269.0,1257.0,1213.0,1164.0,1078.0,1024.0,959.0,898.0,840.0,759.0,709.0,678.0,630.0,567.0,512.0,4947,4688,4384,3958,3530,3340,3143,3015,2936,2912,2928,2841,2792,2748,2651,2515,2334,2264,2204,2070,1984,1923,0.9134100203739018,631.2104447035838,574.6639408351723,552.7951271844054,534.0504297694623,492.1872722094229,465.3198725813378,446.2627635428124
B000005227,1154525279,강원,강원특별자치도교육청,대진초등학교,1926-04-01,강원특별자치도 고성군 현내면 대진리 148 번지,강원특별자치도 고성군 현내면 대진3길 15,38.49696274,128.423592,강원특별자치도 고성군,99.0,90.0,79.0,64.0,57.0,53.0,40.0,37.0,35.0,30.0,33.0,31.0,40.0,44.0,42.0,2262,2082,1916,1766,1598,1486,1425,1346,1257,1226,1172,1121,1081,1041,1018,940,856,821,761,706,668,620,0.9345963105210183,24.771214121902936,20.379338039480913,18.549389671805073,15.412335327217917,12.536702178013023,10.54990109310782,8.040257617438094
B000004873,1180781960,강원,강원특별자치도교육청,평원초등학교,1995-03-15,강원특별자치도 원주시 단계동 814 번지,강원특별자치도 원주시 금불2길 20,37.34968188,127.9317518,원주시,1130.0,1079.0,1007.0,913.0,857.0,755.0,729.0,722.0,756.0,810.0,852.0,823.0,816.0,849.0,856.0,21266,20620,19692,18727,17843,17562,17366,17226,17344,17569,17725,17153,16782,16521,16050,15398,14460,14060,13627,13057,12660,12303,0.85696679489535,683.0528246445339,617.0298815825885,588.8751084218442,558.3975664753385,518.2770147212779,490.33340235923913,465.20526731327493
B000004836,1202087283,강원,강원특별자치도교육청,남춘천초등학교,1951-10-15,강원특별자치도 춘천시 온의동 550 번지,강원특별자치도 춘천시 충혼길 33,37.86162079,127.7220519,춘천시,875.0,814.0,711.0,646.0,580.0,535.0,511.0,465.0,434.0,410.0,386.0,384.0,408.0,558.0,608.0,18262,17364,16391,15453,14274,13761,13431,13141,13168,13407,13633,13454,13276,13220,12937,12275,11675,11214,10764,10194,9710,9298,0.8864170829671424,389.0380915029548,340.9285422236877,303.9643718607841,267.8822099013337,222.1781380860299,183.36976833408767,150.3345444956576
B000005176,1218364000,강원,강원특별자치도교육청,유촌초등학교,1908-04-01,강원특별자치도 화천군 간동면 유촌리 604 번지,강원특별자치도 화천군 간동면 파로호로 935-9,38.05575042,127.7913201,화천군,77.0,71.0,74.0,71.0,68.0,57.0,48.0,47.0,41.0,43.0,35.0,29.0,29.0,32.0,35.0,2317,2211,2115,1950,1841,1753,1677,1627,1584,1565,1578,1523,1512,1529,1507,1450,1375,1332,1234,1105,1039,976,0.9325163984296824,32.23403152173941,27.715037351648377,25.124147360796186,19.21932831187725,11.446658339320692,7.469943469640583,3.673988366764121
B000004995,1261952579,강원,강원특별자치도교육청,광정초등학교,1967-03-20,강원특별자치도 양양군 현북면 하광정리 193 번지,강원특별자치도 양양군 현북면 하조대1길 38,38.01858351,128.7251068,양양군,56.0,51.0,46.0,54.0,55.0,49.0,29.0,40.0,38.0,23.0,23.0,20.0,28.0,19.0,25.0,1811,1716,1624,1492,1333,1281,1213,1170,1121,1102,1097,1033,993,948,899,808,770,741,702,652,603,587,0.8368115836900988,18.8043342089679,17.253681817952213,16.070289203756033,14.478830170871511,12.43849807742982,10.438972625856962,9.786066355955619
B000022527,1435594499,강원,강원특별자치도교육청,사북초등학교,1941-10-01,강원특별자치도 정선군 사북읍 사북리 344-4 번지,강원특별자치도 정선군 사북읍 소금강로 3561,37.228564,128.8342378,정선군,328.0,295.0,255.0,227.0,257.0,252.0,236.0,242.0,234.0,243.0,244.0,228.0,223.0,211.0,203.0,2631,2455,2278,2085,1907,1838,1727,1728,1701,1659,1661,1547,1531,1442,1347,1241,1111,1053,945,877,791,737,0.8895764848663255,200.52939337239445,190.76614713569518,186.41023727624474,178.2992327103715,173.1923039096365,166.73354101458932,162.6780387316527
B000004837,1439044892,강원,강원특별자치도교육청,소양초등학교,1941-11-01,강원특별자치도 춘천시 우두동 282-1 번지,강원특별자치도 춘천시 충열로 134,37.90535836,127.7398864,춘천시,1283.0,1222.0,1158.0,1147.0,1100.0,1062.0,993.0,1011.0,982.0,991.0,974.0,949.0,1003.0,981.0,940.0,18262,17364,16391,15453,14274,13761,13431,13141,13168,13407,13633,13454,13276,13220,12937,12275,11675,11214,10764,10194,9710,9298,0.9616657159644889,929.7192937685655,893.9629773424081,866.4902075549771,839.672970235359,805.7044696305095,776.8610410467425,752.3083704341144
B000005186,1484088301,강원,강원특별자치도교육청,비봉초등학교,1965-03-01,강원특별자치도 양구군 양구읍 하리 43번지,강원특별자치도 양구군 양구읍 관공서로 56,38.11058955,127.9880675,양구군,357.0,323.0,280.0,264.0,218.0,200.0,193.0,174.0,168.0,157.0,161.0,142.0,141.0,145.0,131.0,1890,1803,1724,1634,1493,1444,1374,1299,1242,1247,1258,1231,1242,1286,1289,1266,1203,1180,1131,1064,1004,931,0.9828370172325412,153.06616885539657,133.70101458465436,126.63119635882785,111.56940970380614,90.97472182857243,72.5317177611989,50.09272947922781
B000005112,1490767538,강원,강원특별자치도교육청,미탄초등학교,1933-10-01,강원특별자치도 평창군 미탄면 창리 776-1,강원특별자치도 평창군 미탄면 미탄중앙로 49,37.34208875,128.5006251,평창군,96.0,94.0,72.0,69.0,56.0,51.0,43.0,37.0,39.0,37.0,37.0,23.0,26.0,28.0,25.0,2962,2737,2506,2291,2063,1981,1886,1808,1738,1676,1646,1570,1466,1418,1329,1285,1168,1067,974,872,782,689,0.9849184842261688,17.472259109757097,11.851244494130057,6.998915637905,2.530929661380938,-2.36944205480674,-6.693299451442925,-11.161285427966988
B000005012,1528597950,강원,강원특별자치도교육청,호산초등학교,1921-05-20,강원특별자치도 삼척시 원덕읍 호산리 347 번지,강원특별자치도 삼척시 원덕읍 삼척로 462-12,37.17753531,129.3354334,삼척시,163.0,142.0,131.0,107.0,99.0,88.0,86.0,81.0,77.0,70.0,68.0,57.0,60.0,51.0,47.0,4947,4688,4384,3958,3530,3340,3143,3015,2936,2912,2928,2841,2792,2748,2651,2515,2334,2264,2204,2070,1984,1923,0.9829170667491948,49.22029358322868,41.07895014484741,37.93036428469995,35.23157640457356,29.204283472291294,25.336020844110138,22.592253165981646
B000005163,1572859764,강원,강원특별자치도교육청,동송초등학교,1954-07-01,강원특별자치도 철원군 동송읍 이평리 836 번지,강원특별자치도 철원군 동송읍 금학로187번길 16-13,38.20391455,127.216704,철원군,933.0,993.0,941.0,890.0,878.0,849.0,787.0,722.0,678.0,677.0,664.0,642.0,633.0,596.0,587.0,4191,3982,3715,3423,3113,2953,2801,2717,2691,2662,2639,2576,2560,2547,2460,2396,2295,2244,2153,2028,1919,1797,0.9159628638033042,628.136497564322,605.3814693805979,593.891306634361,573.3892515381343,545.2270879444163,520.6696812906944,493.1834096232256
B000004825,1617287337,강원,강원특별자치도교육청,효제초등학교,1963-02-12,강원특별자치도 춘천시 효자동 161-2 번지,강원특별자치도 춘천시 효제길 40,37.87091642,127.738179,춘천시,450.0,423.0,338.0,304.0,274.0,269.0,234.0,209.0,200.0,193.0,189.0,160.0,162.0,147.0,135.0,18262,17364,16391,15453,14274,13761,13431,13141,13168,13407,13633,13454,13276,13220,12937,12275,11675,11214,10764,10194,9710,9298,0.9526993647481746,133.0198091319462,100.3267399847665,75.20756519001691,50.68776332963216,19.6293476398115,-6.743061472246723,-29.192302286643383
B000004970,1623643636,강원,강원특별자치도교육청,장성초등학교,1938-04-22,강원특별자치도 태백시 장성동 187-1 번지,강원특별자치도 태백시 보드미길 26,37.10267933,129.0057684,태백시,178.0,163.0,135.0,108.0,94.0,88.0,97.0,105.0,106.0,105.0,89.0,89.0,83.0,74.0,62.0,3336,3187,3038,2901,2775,2795,2772,2757,2776,2751,2721,2560,2422,2270,2039,1879,1688,1526,1351,1182,1067,916,0.9092550282553417,30.320055560079055,13.738635442357548,-0.3251868564429117,-15.517587487863153,-30.189105811920427,-40.17268336971087,-53.2815547716792
B000004885,1674925327,강원,강원특별자치도교육청,장양초등학교,1947-12-03,강원특별자치도 원주시 태장동 장전길 1983 번지,강원특별자치도 원주시 북원로 2868,37.39858148,127.9532647,원주시,448.0,376.0,339.0,306.0,279.0,259.0,235.0,213.0,178.0,177.0,156.0,125.0,97.0,92.0,87.0,21266,20620,19692,18727,17843,17562,17366,17226,17344,17569,17725,17153,16782,16521,16050,15398,14460,14060,13627,13057,12660,12303,0.9319611509163772,48.07699161066671,-16.425626333972104,-43.932073218679534,-73.70780197137526,-112.90448878208326,-140.2046373151553,-164.7541411597566
B000005076,1770399630,강원,강원특별자치도교육청,청일초등학교,1934-09-24,강원특별자치도 횡성군 청일면 유동리 1005-1,강원특별자치도 횡성군 청일면 청정로 795,37.58131788,128.146834,횡성군,51.0,47.0,38.0,38.0,34.0,31.0,33.0,34.0,27.0,28.0,22.0,21.0,16.0,10.0,9.0,2731,2495,2314,2111,1980,1924,1829,1759,1712,1671,1649,1530,1455,1429,1357,1284,1172,1147,1099,1019,936,894,0.9455051626175248,12.681533058925147,9.47372457849621,8.757695899829038,7.382920836788063,5.091629065053105,2.7144138518780885,1.5114856717172387
B000004888,1846746027,강원,강원특별자치도교육청,문막초등학교,1917-05-01,강원특별자치도 원주시 문막읍 건등리 1704 번지,강원특별자치도 원주시 문막읍 건등로 28-11,37.31291674,127.8205042,원주시,608.0,569.0,546.0,487.0,437.0,423.0,413.0,401.0,408.0,418.0,492.0,486.0,443.0,409.0,390.0,21266,20620,19692,18727,17843,17562,17366,17226,17344,17569,17725,17153,16782,16521,16050,15398,14460,14060,13627,13057,12660,12303,0.9162385308962898,355.72238069384537,316.8585148128391,300.2854376780816,282.3450816797067,258.7284467626773,242.2796677064306,227.48819636365954
B000004969,1851055264,강원,강원특별자치도교육청,삼성초등학교,1964-03-14,강원특별자치도 태백시 장성동 32-2 번지,강원특별자치도 태백시 평화길 44,37.097576,129.0235889,태백시,111.0,102.0,86.0,81.0,70.0,63.0,56.0,45.0,44.0,48.0,52.0,55.0,47.0,44.0,30.0,3336,3187,3038,2901,2775,2795,2772,2757,2776,2751,2721,2560,2422,2270,2039,1879,1688,1526,1351,1182,1067,916,0.8704940662324401,9.42842805074828,-2.2929466015634716,-12.234636097241491,-22.97411549072085,-33.345384162138046,-40.4027563349959,-49.66939284022666
B000004968,1870220184,강원,강원특별자치도교육청,태백초등학교,1961-11-25,강원특별자치도 태백시 장성동 207-2 번지,강원특별자치도 태백시 태백로 1811,37.10857841,129.005232,태백시,86.0,67.0,71.0,75.0,68.0,66.0,51.0,46.0,40.0,41.0,38.0,35.0,38.0,34.0,32.0,3336,3187,3038,2901,2775,2795,2772,2757,2776,2751,2721,2560,2422,2270,2039,1879,1688,1526,1351,1182,1067,916,0.81896400326784,14.521167856051605,6.088736257723141,-1.0633785010685415,-8.789428394824988,-16.250585149366927,-21.327703650978307,-27.99418098787673
B000005009,1878157913,강원,강원특별자치도교육청,진주초등학교,1946-04-15,강원특별자치도 삼척시 남양동 178 번지,강원특별자치도 삼척시 사직로1길 23,37.43304777,129.1657583,삼척시,349.0,296.0,256.0,248.0,199.0,172.0,188.0,184.0,175.0,191.0,196.0,174.0,168.0,157.0,136.0,4947,4688,4384,3958,3530,3340,3143,3015,2936,2912,2928,2841,2792,2748,2651,2515,2334,2264,2204,2070,1984,1923,0.9558540920664035,142.40938498147855,129.23185443630084,124.13557190501663,119.76732973534448,110.01158888974331,103.75044177987988,99.3093955740465
B000004880,1894677102,강원,강원특별자치도교육청,원주초등학교,1896-09-17,강원특별자치도 원주시 봉산동 1120 번지,강원특별자치도 원주시 봉산로 15,37.347842,127.9588477,원주시,704.0,594.0,512.0,443.0,391.0,379.0,346.0,331.0,315.0,302.0,266.0,246.0,231.0,213.0,195.0,21266,20620,19692,18727,17843,17562,17366,17226,17344,17569,17725,17153,16782,16521,16050,15398,14460,14060,13627,13057,12660,12303,0.9701534681160225,120.62408789133724,31.430744420891187,-6.604796504672095,-47.77826955659452,-101.97891537552232,-139.72918974414392,-173.67591002020936
B000004924,1946212530,강원,강원특별자치도교육청,옥천초등학교,1943-07-06,강원특별자치도 강릉시 옥천동 111번지,강원특별자치도 강릉시 수문길 25,37.75683221,128.9027168,강릉시,509.0,454.0,404.0,346.0,298.0,256.0,231.0,212.0,185.0,201.0,207.0,193.0,184.0,173.0,161.0,15873,15217,14515,13637,12479,11873,11310,10841,10397,10272,10161,9702,9360,9108,8703,8116,7516,7020,6672,6162,5819,5561,0.9804572879320183,105.07805897952693,76.79041549719813,53.40596355180628,36.999130332055586,12.954633372076103,-3.216469485321852,-15.380156182723226
B000004876,2123642802,강원,강원특별자치도교육청,남원주초등학교,1998-03-01,강원특별자치도 원주시 단구동 1588-2 번지,강원특별자치도 원주시 늘품로 28,37.32275082,127.9509825,원주시,1651.0,1628.0,1597.0,1478.0,1372.0,1275.0,1179.0,1084.0,1046.0,1011.0,968.0,854.0,896.0,851.0,788.0,21266,20620,19692,18727,17843,17562,17366,17226,17344,17569,17725,17153,16782,16521,16050,15398,14460,14060,13627,13057,12660,12303,0.9091823946878859,704.5514368617014,531.2245504037573,457.3111659867236,377.2999273552841,271.9733545610111,198.61432052710506,132.64662493490232
B000004960,2147341728,강원,강원특별자치도교육청,천곡초등학교,1993-12-31,강원특별자치도 동해시 천곡동 320-1 번지,강원특별자치도 동해시 동굴로 33,37.5177868,129.1078871,동해시,778.0,679.0,591.0,553.0,528.0,475.0,427.0,392.0,371.0,326.0,300.0,285.0,281.0,268.0,252.0,7945,7540,7176,6704,6185,5832,5516,5250,5017,4932,4831,4668,4582,4425,4320,4089,3792,3487,3188,2943,2655,2450,0.9908886339915864,220.55798050499288,180.2961441114769,138.94981380837118,98.41685393745774,65.20422795627445,26.162447211046754,-1.627709222188173
B000004849,2159396648,강원,강원특별자치도교육청,당림초등학교,1935-04-01,강원특별자치도 춘천시 서면 당림리 414-1 번지,강원특별자치도 춘천시 서면 당숲안길 81,37.83784571,127.6081748,춘천시,24.0,19.0,18.0,17.0,16.0,18.0,17.0,13.0,9.0,12.0,13.0,13.0,12.0,11.0,8.0,18262,17364,16391,15453,14274,13761,13431,13141,13168,13407,13633,13454,13276,13220,12937,12275,11675,11214,10764,10194,9710,9298,0.8404158431560194,10.313941132247448,9.05215964579874,8.082690870377318,7.136354755540788,5.937662343414518,4.919825277679228,4.0534019903177825
B000024604,2207606136,강원,강원특별자치도교육청,학성초등학교,1944-05-20,강원특별자치도 원주시 태장동 152-1,강원특별자치도 원주시 치악로 2009-9,37.36064068,127.958829,원주시,998.0,980.0,953.0,898.0,863.0,846.0,771.0,719.0,685.0,654.0,602.0,610.0,592.0,553.0,540.0,21266,20620,19692,18727,17843,17562,17366,17226,17344,17569,17725,17153,16782,16521,16050,15398,14460,14060,13627,13057,12660,12303,0.8790057418498659,506.71906527847557,417.4141803753711,379.33107380688296,338.1061109464946,283.837684086399,246.04020081717465,212.05102820479908
B000004951,2331170141,강원,강원특별자치도교육청,묵호초등학교,1935-10-07,강원특별자치도 동해시 발한동 318,강원특별자치도 동해시 발한천길 30,37.552301,129.1013302,동해시,269.0,237.0,212.0,200.0,179.0,166.0,153.0,144.0,143.0,132.0,107.0,94.0,85.0,82.0,90.0,7945,7540,7176,6704,6185,5832,5516,5250,5017,4932,4831,4668,4582,4425,4320,4089,3792,3487,3188,2943,2655,2450,0.9821063745246527,77.57970014914531,63.360460034020775,48.75821008414542,34.44321751033317,22.713541321089025,8.925187270059183,-0.8894397454308205
B000005203,2343569993,강원,강원특별자치도교육청,용대초등학교,1937-03-31,강원특별자치도 인제군 북면 용대리 1025-1,강원특별자치도 인제군 북면 미시령로 1031,38.19559876,128.3293941,인제군,97.0,94.0,70.0,60.0,44.0,45.0,45.0,44.0,47.0,45.0,38.0,34.0,29.0,30.0,36.0,2767,2637,2529,2356,2224,2240,2270,2276,2294,2271,2262,2162,2112,2134,2083,2058,1946,1863,1763,1614,1490,1392,0.9762729414321146,24.048110438972287,12.173230678490171,3.3730965702757487,-7.229474644440444,-23.027305754367546,-36.174494060615615,-46.56501385103746
B000004988,2397735059,강원,강원특별자치도교육청,조산초등학교,1944-04-10,강원특별자치도 양양군 양양읍 조산리 450-5 번지,강원특별자치도 양양군 양양읍 동해대로 3020,38.11371111,128.6323998,양양군,101.0,85.0,77.0,73.0,65.0,57.0,55.0,54.0,42.0,39.0,40.0,41.0,42.0,39.0,35.0,1811,1716,1624,1492,1333,1281,1213,1170,1121,1102,1097,1033,993,948,899,808,770,741,702,652,603,587,0.9782327701933629,25.654969107655127,23.050072994347133,21.06212596050682,18.388679949480192,14.961185063548612,11.602240075335672,10.50544171183757
B000004920,2415572822,강원,강원특별자치도교육청,율곡초등학교,2000-03-01,강원특별자치도 강릉시 교동 1851 번지,강원특별자치도 강릉시 원대로 129,37.76623849,128.8816262,강릉시,1505.0,1489.0,1477.0,1384.0,1275.0,1212.0,1117.0,1095.0,1105.0,1112.0,1162.0,1004.0,964.0,935.0,923.0,15873,15217,14515,13637,12479,11873,11310,10841,10397,10272,10161,9702,9360,9108,8703,8116,7516,7020,6672,6162,5819,5561,0.9802437678142335,888.3096766004189,836.8551065030215,794.3193285558395,764.4756778993491,720.7392933165612,691.3244307442156,669.1989656023347
B000004842,2544205129,강원,강원특별자치도교육청,동부초등학교,1994-12-29,강원특별자치도 춘천시 후평동 894 번지,강원특별자치도 춘천시 서부대성로 339,37.87105987,127.754782,춘천시,968.0,885.0,821.0,724.0,633.0,579.0,537.0,521.0,488.0,483.0,491.0,446.0,405.0,383.0,370.0,18262,17364,16391,15453,14274,13761,13431,13141,13168,13407,13633,13454,13276,13220,12937,12275,11675,11214,10764,10194,9710,9298,0.9650179041480454,362.9622919372,299.38966422549834,250.54469526700768,202.86522448323126,142.47122815711487,91.18930846967555,47.53610410764031
B000005162,2700800001,강원,강원특별자치도교육청,오덕초등학교,1960-04-06,강원특별자치도 철원군 동송읍 오덕리 517-1 번지,강원특별자치도 철원군 동송읍 오덕로 159,38.22299855,127.2321739,철원군,137.0,141.0,128.0,111.0,90.0,100.0,98.0,87.0,90.0,79.0,86.0,77.0,70.0,59.0,39.0,4191,3982,3715,3423,3113,2953,2801,2717,2691,2662,2639,2576,2560,2547,2460,2396,2295,2244,2153,2028,1919,1797,0.9149848249763827,65.10873118236732,60.49351971276188,58.16306639642646,54.00480655747502,48.29291117429996,43.31213840017131,37.737328506192455
B000004919,2701026380,강원,강원특별자치도교육청,경포초등학교,2003-10-08,강원특별자치도 강릉시 교동 1797번지,강원특별자치도 강릉시 솔올로 90,37.77000657,128.8798576,강릉시,1172.0,1148.0,1095.0,1002.0,913.0,849.0,772.0,763.0,734.0,747.0,836.0,520.0,469.0,455.0,425.0,15873,15217,14515,13637,12479,11873,11310,10841,10397,10272,10161,9702,9360,9108,8703,8116,7516,7020,6672,6162,5819,5561,0.9505202471696425,440.0410282441745,378.5489816401205,327.7155564474358,292.05016941708436,239.78192980363838,204.62897649498746,178.1873964552442
B000004980,2945361673,강원,강원특별자치도교육청,소야초등학교,2002-10-04,강원특별자치도 속초시 노학동 1-36,강원특별자치도 속초시 배움터길 42,38.19964843,128.5667195,속초시,787.0,691.0,611.0,578.0,509.0,471.0,437.0,403.0,399.0,393.0,374.0,360.0,346.0,345.0,317.0,6800,6397,5990,5525,4946,4620,4283,4033,3950,3936,3946,3840,3828,3862,3679,3395,3166,2984,2790,2525,2377,2302,0.9907591661870061,302.12072399983,271.65443254816864,247.4410480756692,221.6311767148731,186.37542459832173,166.6854196426629,156.70737659080874
B000005051,3036984324,강원,강원특별자치도교육청,창촌초등학교,1929-04-01,강원특별자치도 홍천군 내면 창촌리 1624-5 번지,강원특별자치도 홍천군 내면 구룡령로 5198,37.76852978,128.3886481,홍천군,98.0,104.0,95.0,75.0,65.0,67.0,71.0,60.0,60.0,62.0,48.0,43.0,39.0,42.0,38.0,5274,4932,4668,4314,3918,3756,3578,3443,3317,3185,3160,2945,2825,2770,2681,2596,2464,2352,2219,2010,1864,1763,0.9654184862975342,37.78964517799183,34.452067612746276,31.620183617992474,28.25732137422233,22.972823562583535,19.28126049799375,16.72750796701041
B000005174,3172460019,강원,강원특별자치도교육청,산양초등학교,1959-04-15,강원특별자치도 화천군 상서면 산양리 707 번지,강원특별자치도 화천군 상서면 영서로 7778,38.21257979,127.6631402,화천군,84.0,78.0,85.0,41.0,32.0,25.0,23.0,16.0,21.0,19.0,19.0,20.0,25.0,35.0,40.0,2317,2211,2115,1950,1841,1753,1677,1627,1584,1565,1578,1523,1512,1529,1507,1450,1375,1332,1234,1105,1039,976,0.8829946807297689,13.61292627487245,7.68420674617262,4.285074216384729,-3.461785967783044,-13.659183557146747,-18.87645674240258,-23.856581146510436
B000005030,3226394951,강원,강원특별자치도교육청,석화초등학교,1962-06-13,강원특별자치도 홍천군 홍천읍 갈마곡리 431,강원특별자치도 홍천군 홍천읍 석화안길1길 12,37.69725595,127.8928843,홍천군,648.0,592.0,535.0,474.0,395.0,338.0,294.0,272.0,272.0,266.0,282.0,291.0,297.0,317.0,323.0,5274,4932,4668,4314,3918,3756,3578,3443,3317,3185,3160,2945,2825,2770,2681,2596,2464,2352,2219,2010,1864,1763,0.9175421232007072,222.456848681983,203.6139673721338,187.62606807892837,168.640437668247,138.80587559431905,117.96450687281913,103.54684768876785
B000005022,3237437605,강원,강원특별자치도교육청,흥전초등학교,1964-03-14,강원특별자치도 삼척시 도계읍 흥전리 60-9 번지,강원특별자치도 삼척시 도계읍 흥전안길 137,37.21385827,129.0431938,삼척시,106.0,97.0,77.0,66.0,60.0,58.0,49.0,42.0,40.0,36.0,34.0,31.0,30.0,25.0,25.0,4947,4688,4384,3958,3530,3340,3143,3015,2936,2912,2928,2841,2792,2748,2651,2515,2334,2264,2204,2070,1984,1923,0.9852380501074403,22.610038480373305,16.56864594325637,14.23219579078021,12.22952423151493,7.756891082489119,4.886395180875553,2.85034576228918
B000005071,3244607150,강원,강원특별자치도교육청,우천초등학교,1930-04-01,강원특별자치도 횡성군 우천면 우항리 628 번지,강원특별자치도 횡성군 우천면 수남로 319,37.46116506,128.0615769,횡성군,154.0,138.0,126.0,119.0,106.0,84.0,82.0,68.0,71.0,65.0,71.0,64.0,61.0,77.0,63.0,2731,2495,2314,2111,1980,1924,1829,1759,1712,1671,1649,1530,1455,1429,1357,1284,1172,1147,1099,1019,936,894,0.9539859142854428,47.945564361883726,39.824513029620846,38.01177835724074,34.531327786270936,28.7305768346546,22.71229772235263,19.666903472754058
B000004933,3281801879,강원,강원특별자치도교육청,신영초등학교,1966-03-21,강원특별자치도 강릉시 주문진읍 향호리 1187-7,강원특별자치도 강릉시 주문진읍 주문북로 160,37.90706843,128.8232652,강릉시,75.0,58.0,61.0,55.0,52.0,46.0,48.0,45.0,34.0,30.0,34.0,36.0,32.0,31.0,40.0,15873,15217,14515,13637,12479,11873,11310,10841,10397,10272,10161,9702,9360,9108,8703,8116,7516,7020,6672,6162,5819,5561,0.927085745147603,26.84832353317919,23.665738861534813,21.034802199642137,19.188903090088395,16.48370611919068,14.664328548567312,13.295817139760231
B000005197,3301814377,강원,강원특별자치도교육청,인제남초등학교,1965-04-01,강원특별자치도 인제군 인제읍 남북리 210번지,강원특별자치도 인제군 인제읍 인제로156번길 34,38.06409774,128.1706146,인제군,364.0,331.0,322.0,292.0,259.0,261.0,242.0,236.0,216.0,204.0,208.0,211.0,206.0,244.0,246.0,2767,2637,2529,2356,2224,2240,2270,2276,2294,2271,2262,2162,2112,2134,2083,2058,1946,1863,1763,1614,1490,1392,0.8575048004590243,201.05201372969424,176.35582559675754,158.0541861768134,136.0040182009771,103.14926791698099,75.80705962694401,54.19789501062439
B000005226,3343312978,강원,강원특별자치도교육청,대진초등학교명파분교장,1959-04-25,강원특별자치도 고성군 현내면 명파리 264 번지,강원특별자치도 고성군 현내면 금강산로 840,38.54210112,128.4010222,강원특별자치도 고성군,19.0,17.0,13.0,12.0,9.0,9.0,12.0,11.0,12.0,7.0,4.0,6.0,6.0,6.0,1.0,2262,2082,1916,1766,1598,1486,1425,1346,1257,1226,1172,1121,1081,1041,1018,940,856,821,761,706,668,620,0.8914188758461488,4.001193766279849,3.084668385678654,2.7027828104281575,2.048121824284447,1.4480159203193796,1.0333972957616968,0.5096685068467286
B000004928,3441589653,강원,강원특별자치도교육청,강릉초등학교,1896-09-17,강원특별자치도 강릉시 홍제동 38,강원특별자치도 강릉시 토성로 103,37.75367806,128.887751,강릉시,1040.0,988.0,880.0,757.0,667.0,631.0,559.0,546.0,534.0,565.0,554.0,510.0,498.0,482.0,476.0,15873,15217,14515,13637,12479,11873,11310,10841,10397,10272,10161,9702,9360,9108,8703,8116,7516,7020,6672,6162,5819,5561,0.9736473215123944,375.085766389584,327.9667886203076,289.0151003310391,261.68609322485884,221.6349621209739,194.6986131628709,174.43745272208207
B000004875,3529679834,강원,강원특별자치도교육청,구곡초등학교,2007-05-07,강원특별자치도 원주시 단구동 982-1,강원특별자치도 원주시 늘품로 64,37.32488379,127.952479,원주시,1165.0,1193.0,1187.0,1125.0,1084.0,1058.0,1022.0,1017.0,1005.0,1062.0,1027.0,927.0,816.0,739.0,688.0,21266,20620,19692,18727,17843,17562,17366,17226,17344,17569,17725,17153,16782,16521,16050,15398,14460,14060,13627,13057,12660,12303,0.8175710644501364,789.7910866153464,710.1177990770867,676.1419834957395,639.363163128931,590.9476259255108,557.2266289610237,526.9032135546712
B000004833,3554268717,강원,강원특별자치도교육청,봄내초등학교,2000-03-01,강원특별자치도 춘천시 석사동 815 번지,강원특별자치도 춘천시 퇴계로 220-10,37.85564001,127.7419242,춘천시,1714.0,1580.0,1462.0,1372.0,1240.0,1131.0,1047.0,1000.0,970.0,935.0,916.0,909.0,673.0,601.0,548.0,18262,17364,16391,15453,14274,13761,13431,13141,13168,13407,13633,13454,13276,13220,12937,12275,11675,11214,10764,10194,9710,9298,0.9010585875068642,692.537228955395,582.1895322567946,497.405718626703,414.6449461027528,309.81463423908235,220.80082556887783,145.02874050250557
B000005113,3585561513,강원,강원특별자치도교육청,대화초등학교,1920-10-08,강원특별자치도 평창군 대화면 대화리 971 번지,강원특별자치도 평창군 대화면 대화중앙로 92-9,37.49794605,128.4567574,평창군,236.0,213.0,199.0,177.0,153.0,148.0,138.0,123.0,106.0,117.0,113.0,102.0,101.0,102.0,101.0,2962,2737,2506,2291,2063,1981,1886,1808,1738,1676,1646,1570,1466,1418,1329,1285,1168,1067,974,872,782,689,0.9870332091092685,82.87563174375323,72.30164007983636,63.17366436995941,54.76869663710242,45.55034493009798,37.416505188623475,29.01153745576648
B000004974,3626116514,강원,강원특별자치도교육청,황지중앙초등학교,1964-03-14,강원특별자치도 태백시 황지동 274-10,강원특별자치도 태백시 태백로 810,37.1803949,128.9841425,태백시,472.0,460.0,447.0,436.0,430.0,475.0,463.0,462.0,465.0,474.0,467.0,420.0,379.0,337.0,308.0,3336,3187,3038,2901,2775,2795,2772,2757,2776,2751,2721,2560,2422,2270,2039,1879,1688,1526,1351,1182,1067,916,0.8208851380336327,321.7139934178905,297.0268537463656,276.0880232396272,253.46891621074315,231.62532142284942,216.76133680386846,197.24427873894564
B000004884,3672209739,강원,강원특별자치도교육청,태장초등학교,1953-04-13,강원특별자치도 원주시 태장동 1002 번지,강원특별자치도 원주시 현충로 260,37.37621832,127.9514457,원주시,1079.0,1059.0,1022.0,967.0,883.0,918.0,938.0,891.0,856.0,862.0,820.0,719.0,683.0,629.0,572.0,21266,20620,19692,18727,17843,17562,17366,17226,17344,17569,17725,17153,16782,16521,16050,15398,14460,14060,13627,13057,12660,12303,0.8618277906481473,633.4109046001873,550.599994623179,515.2861737374614,477.0589626286718,426.7367678665238,391.68780063744896,360.17021549694584
B000005083,3701457619,강원,강원특별자치도교육청,강림초등학교,1933-10-02,강원특별자치도 횡성군 강림면 강림리 1562 번지,강원특별자치도 횡성군 강림면 태종로강림4길 11,37.35840671,128.1200151,횡성군,52.0,46.0,51.0,44.0,50.0,48.0,39.0,35.0,30.0,32.0,27.0,23.0,25.0,35.0,28.0,2731,2495,2314,2111,1980,1924,1829,1759,1712,1671,1649,1530,1455,1429,1357,1284,1172,1147,1099,1019,936,894,0.8423144369796022,25.387829452951557,23.012921955940115,22.482808675357205,21.464991176638016,19.7686286787727,18.008652587237435,17.118062275858144
B000005096,3731924295,강원,강원특별자치도교육청,주천초등학교,1919-11-01,강원특별자치도 영월군 주천면 주천리 1382 번지,강원특별자치도 영월군 주천면 주천로 89,37.27120713,128.2682992,영월군,174.0,164.0,140.0,126.0,105.0,106.0,105.0,91.0,91.0,86.0,79.0,62.0,66.0,62.0,61.0,2789,2519,2362,2124,1922,1802,1699,1627,1519,1472,1419,1320,1246,1184,1114,1022,947,886,837,762,694,653,0.9896767550646244,50.751399151938486,45.490491110219054,41.211619236287255,37.77449264903056,32.51358460731113,27.74369464948552,24.867731586678893
B000005194,3845070600,강원,강원특별자치도교육청,방산초등학교,1918-04-01,강원특별자치도 양구군 방산면 현리 50-4번지,강원특별자치도 양구군 방산면 평화로 5121-7,38.20935773,127.9435152,양구군,90.0,88.0,71.0,64.0,63.0,43.0,43.0,28.0,32.0,23.0,22.0,24.0,20.0,20.0,16.0,1890,1803,1724,1634,1493,1444,1374,1299,1242,1247,1258,1231,1242,1286,1289,1266,1203,1180,1131,1064,1004,931,0.9692894196585121,25.09172866999171,18.17797505812723,15.653906279192569,10.276542358853533,2.923820263696072,-3.660706985698667,-11.671881805795607
B000004830,3860784053,강원,강원특별자치도교육청,신남초등학교,1934-10-10,강원특별자치도 춘천시 칠전동 149 번지,강원특별자치도 춘천시 칠전서길 37,37.84209461,127.711758,춘천시,530.0,491.0,461.0,435.0,386.0,402.0,368.0,351.0,373.0,352.0,335.0,312.0,312.0,294.0,262.0,18262,17364,16391,15453,14274,13761,13431,13141,13168,13407,13633,13454,13276,13220,12937,12275,11675,11214,10764,10194,9710,9298,0.9184607413868418,293.4632949084459,269.0734876541544,250.33398574710714,232.04163030638853,208.8713134148116,189.19686889634983,172.44920124840303
B000005023,3884926080,강원,강원특별자치도교육청,하장초등학교,1936-06-30,강원특별자치도 삼척시 하장면 광동리 76-1 번지,강원특별자치도 삼척시 하장면 하장길 84,37.34777333,128.9443039,삼척시,38.0,38.0,31.0,28.0,22.0,15.0,14.0,10.0,13.0,15.0,16.0,14.0,15.0,18.0,12.0,4947,4688,4384,3958,3530,3340,3143,3015,2936,2912,2928,2841,2792,2748,2651,2515,2334,2264,2204,2070,1984,1923,0.9533124033965003,9.615265102573332,7.474865099019436,6.647086092120141,5.937561229063601,4.352955701570661,3.3359700645229537,2.6146197870821375
B000004868,3925336241,강원,강원특별자치도교육청,명륜초등학교,1955-06-05,강원특별자치도 원주시 개운동 389 번지,강원특별자치도 원주시 행구로 25,37.34202301,127.9592728,원주시,1186.0,1016.0,1031.0,931.0,845.0,808.0,742.0,723.0,660.0,629.0,558.0,462.0,450.0,414.0,383.0,21266,20620,19692,18727,17843,17562,17366,17226,17344,17569,17725,17153,16782,16521,16050,15398,14460,14060,13627,13057,12660,12303,0.9100656614298439,334.96361664414235,193.236152411454,132.79800135273808,67.37370283167866,-18.750662426991312,-78.7355273527669,-132.67657717267048
B000004838,3949479341,강원,강원특별자치도교육청,남부초등학교,1996-09-01,강원특별자치도 춘천시 퇴계동 915 번지,강원특별자치도 춘천시 춘주로 159,37.8590161,127.7261391,춘천시,1459.0,1377.0,1297.0,1278.0,1183.0,1079.0,1068.0,1018.0,1004.0,980.0,997.0,1054.0,784.0,736.0,657.0,18262,17364,16391,15453,14274,13761,13431,13141,13168,13407,13633,13454,13276,13220,12937,12275,11675,11214,10764,10194,9710,9298,0.8582246255467114,824.9090632680802,755.3880650850908,701.9727648144938,649.8320161772515,583.7870679034115,527.7067960357999,479.9690439501471
B000004878,4006244003,강원,강원특별자치도교육청,서원주초등학교,2000-09-01,강원특별자치도 원주시 명륜동 844 번지,강원특별자치도 원주시 남원로469번길 61,37.32716911,127.939871,원주시,1551.0,1412.0,1309.0,1228.0,1143.0,1044.0,1002.0,940.0,887.0,849.0,803.0,733.0,668.0,652.0,710.0,21266,20620,19692,18727,17843,17562,17366,17226,17344,17569,17725,17153,16782,16521,16050,15398,14460,14060,13627,13057,12660,12303,0.9339199187550461,542.6076740200629,377.0294427450417,306.42038889641844,229.98608810528367,129.36818637099577,59.28870042623748,-3.729880133658753
B000005111,4161436617,강원,강원특별자치도교육청,평창초등학교,1912-03-06,강원특별자치도 평창군 평창읍 하리 94 번지,강원특별자치도 평창군 평창읍 송학로 71,37.3701109,128.392364,평창군,502.0,458.0,452.0,414.0,400.0,383.0,402.0,383.0,387.0,361.0,369.0,343.0,316.0,292.0,264.0,2962,2737,2506,2291,2063,1981,1886,1808,1738,1676,1646,1570,1466,1418,1329,1285,1168,1067,974,872,782,689,0.9459132107321994,302.44588589716244,288.2498575100496,275.9951663382684,264.71114377415313,252.33511902641374,241.41509719017307,230.13107462605774
B000005131,4307862162,강원,강원특별자치도교육청,정선초등학교,1912-06-01,강원특별자치도 정선군 정선읍 306 번지,강원특별자치도 정선군 정선읍 비봉로 15,37.38121807,128.659662,정선군,657.0,632.0,593.0,557.0,520.0,486.0,456.0,452.0,458.0,421.0,438.0,406.0,394.0,366.0,317.0,2631,2455,2278,2085,1907,1838,1727,1728,1701,1659,1661,1547,1531,1442,1347,1241,1111,1053,945,877,791,737,0.987615349696934,322.8801917240576,289.22477521003754,274.20928168839777,246.24939719982717,228.64502548480127,206.38067302168025,192.40073077739495
B000005169,4414580821,강원,강원특별자치도교육청,와수초등학교,1955-08-06,강원특별자치도 철원군 서면 와수리 1137-2,강원특별자치도 철원군 서면 와수로 119,38.23572423,127.4351403,철원군,383.0,342.0,302.0,271.0,250.0,230.0,208.0,206.0,192.0,190.0,171.0,160.0,172.0,159.0,165.0,4191,3982,3715,3423,3113,2953,2801,2717,2691,2662,2639,2576,2560,2547,2460,2396,2295,2244,2153,2028,1919,1797,0.9905038079651376,152.1688801826913,139.74147132425097,133.46624506899892,122.26927273119625,106.88881622322555,93.47705814827506,78.46573259649566
B000004981,4452240645,강원,강원특별자치도교육청,청대초등학교,1997-04-01,강원특별자치도 속초시 조양동 551-1 번지,강원특별자치도 속초시 소평로 175,38.19113174,128.5765618,속초시,1081.0,1017.0,957.0,902.0,843.0,799.0,743.0,710.0,658.0,634.0,612.0,621.0,701.0,723.0,746.0,6800,6397,5990,5525,4946,4620,4283,4033,3950,3936,3946,3840,3828,3862,3679,3395,3166,2984,2790,2525,2377,2302,0.9576712653964867,614.42497153046,583.4515229578853,558.8350703805554,532.5955549959289,496.7529180014648,476.7351433781415,466.5910008325385
B000005070,4528341889,강원,강원특별자치도교육청,횡성초등학교,1911-11-03,강원특별자치도 횡성군 횡성읍 읍하리 176-1,강원특별자치도 횡성군 횡성읍 교항북로 35,37.48745216,127.979699,횡성군,669.0,625.0,625.0,614.0,571.0,546.0,542.0,521.0,486.0,478.0,501.0,483.0,462.0,467.0,454.0,2731,2495,2314,2111,1980,1924,1829,1759,1712,1671,1649,1530,1455,1429,1357,1284,1172,1147,1099,1019,936,894,0.9726970373396816,438.83033068568966,419.9847119373543,415.7781006096008,407.70140686031425,394.2402506115032,380.27430100336176,373.20719397273604
B000005140,4621675252,강원,강원특별자치도교육청,여량초등학교,1933-03-05,강원특별자치도 정선군 여량면 여량리 127번지,강원특별자치도 정선군 여량면 서동로 2950,37.47134571,128.7277245,정선군,88.0,93.0,80.0,68.0,66.0,52.0,45.0,45.0,47.0,47.0,44.0,43.0,40.0,39.0,30.0,2631,2455,2278,2085,1907,1838,1727,1728,1701,1659,1661,1547,1531,1442,1347,1241,1111,1053,945,877,791,737,0.9766483122055035,25.280212336463293,18.755488514013557,15.84445788553598,10.423918094577736,7.0109856336040295,2.694629874137277,-0.015640021341845056
B000004929,4628739118,강원,강원특별자치도교육청,한솔초등학교,1995-07-15,강원특별자치도 강릉시 포남동 1296 번지,강원특별자치도 강릉시 하평2길 45,37.77444621,128.9141358,강릉시,782.0,775.0,737.0,696.0,645.0,615.0,637.0,606.0,583.0,549.0,519.0,481.0,442.0,372.0,335.0,15873,15217,14515,13637,12479,11873,11310,10841,10397,10272,10161,9702,9360,9108,8703,8116,7516,7020,6672,6162,5819,5561,0.9403506916087179,391.7413986750405,358.1155107674704,330.31811009721247,310.81509511082186,282.23309038938726,263.01029113555967,248.55115933530453
B000005193,4645737886,강원,강원특별자치도교육청,임당초등학교,1921-03-25,강원특별자치도 양구군 동면 임당리 564 번지,강원특별자치도 양구군 동면 금강산로 1673,38.20110769,128.0421702,양구군,78.0,81.0,75.0,85.0,88.0,53.0,61.0,49.0,42.0,30.0,29.0,38.0,40.0,49.0,52.0,1890,1803,1724,1634,1493,1444,1374,1299,1242,1247,1258,1231,1242,1286,1289,1266,1203,1180,1131,1064,1004,931,0.8438135785684246,44.34617235781062,39.62481504967236,37.90114492130443,34.228978126085785,29.207852099970488,24.71132133031501,19.240542227234165
B000005191,4677632033,강원,강원특별자치도교육청,용하초등학교,1931-03-31,강원특별자치도 양구군 국토정중앙면 용하리 406 번지,강원특별자치도 양구군 국토정중앙면 정중앙로 624-7,38.10953368,128.0360735,양구군,97.0,90.0,80.0,78.0,63.0,57.0,56.0,54.0,49.0,52.0,49.0,41.0,36.0,37.0,48.0,1890,1803,1724,1634,1493,1444,1374,1299,1242,1247,1258,1231,1242,1286,1289,1266,1203,1180,1131,1064,1004,931,0.9657349262426075,45.91998712807068,40.856478545761995,39.00789604745882,35.06961159455208,29.684610403842846,24.862221277834585,18.99498117452452
B000005069,4754929542,강원,강원특별자치도교육청,성북초등학교,1968-03-01,강원특별자치도 횡성군 횡성읍 읍상리 82번지,강원특별자치도 횡성군 횡성읍 성북로 10,37.49023468,127.9918713,횡성군,610.0,646.0,607.0,547.0,526.0,544.0,526.0,504.0,500.0,506.0,501.0,458.0,412.0,408.0,396.0,2731,2495,2314,2111,1980,1924,1829,1759,1712,1671,1649,1530,1455,1429,1357,1284,1172,1147,1099,1019,936,894,0.9408855505473894,412.6328922131112,393.2719963943254,388.95036786334646,380.65284108386686,366.8236297847342,352.47582306188394,345.2154871298393
B000005229,4761960685,강원,강원특별자치도교육청,인흥초등학교,1940-11-15,강원특별자치도 고성군 토성면 인흥리 180번지,강원특별자치도 고성군 토성면 인흥1길 26,38.23702574,128.5511905,강원특별자치도 고성군,78.0,74.0,69.0,66.0,58.0,52.0,45.0,46.0,55.0,53.0,52.0,52.0,53.0,53.0,56.0,2262,2082,1916,1766,1598,1486,1425,1346,1257,1226,1172,1121,1081,1041,1018,940,856,821,761,706,668,620,0.8410298689117568,46.727703862525345,44.96973411675191,44.23724672267965,42.981554047127204,41.83050242787079,41.03523040002091,40.030676259578954
B000004975,4809579551,강원,강원특별자치도교육청,태서초등학교,1982-04-10,강원특별자치도 태백시 황지동 274-724 번지,강원특별자치도 태백시 태백로 802,37.18003577,128.9824439,태백시,143.0,132.0,116.0,73.0,60.0,60.0,65.0,61.0,67.0,75.0,72.0,67.0,60.0,53.0,43.0,3336,3187,3038,2901,2775,2795,2772,2757,2776,2751,2721,2560,2422,2270,2039,1879,1688,1526,1351,1182,1067,916,0.8438383040179599,11.593550880897794,-2.7975816569440894,-15.003673128830911,-28.189265768214824,-40.922780945677005,-49.58759896584358,-60.96488175754057
B000005154,4988195359,강원,강원특별자치도교육청,신철원초등학교,1954-06-30,강원특별자치도 철원군 갈말읍 지포리 7 번지,강원특별자치도 철원군 갈말읍 명성로139번안길 45,38.14752189,127.3055544,철원군,681.0,696.0,656.0,604.0,580.0,524.0,476.0,463.0,417.0,398.0,383.0,378.0,378.0,397.0,386.0,4191,3982,3715,3423,3113,2953,2801,2717,2691,2662,2639,2576,2560,2547,2460,2396,2295,2244,2153,2028,1919,1797,0.9625980327578533,370.615480623303,349.97361628274234,339.55049666523155,320.95238126928086,295.40551946165635,273.1286559654078,248.19491884116627
B000004879,5015151560,강원,강원특별자치도교육청,치악초등학교,1992-03-12,강원특별자치도 원주시 명륜동 709,강원특별자치도 원주시 한지공원길 77,37.33161621,127.9394333,원주시,857.0,753.0,663.0,593.0,526.0,468.0,411.0,375.0,334.0,295.0,272.0,230.0,229.0,322.0,356.0,21266,20620,19692,18727,17843,17562,17366,17226,17344,17569,17725,17153,16782,16521,16050,15398,14460,14060,13627,13057,12660,12303,0.9067186200350972,142.11777367244554,31.139633418035146,-16.18579952627624,-67.41558068849349,-134.85432263413713,-181.82481483136644,-224.06276373416426
B000005218,5480284690,강원,강원특별자치도교육청,거성초등학교,1969-03-08,강원특별자치도 고성군 거진읍 거진리 180 번지,강원특별자치도 고성군 거진읍 거성길 38,38.45258108,128.4571606,강원특별자치도 고성군,106.0,91.0,87.0,77.0,65.0,57.0,59.0,53.0,49.0,54.0,49.0,50.0,43.0,41.0,27.0,2262,2082,1916,1766,1598,1486,1425,1346,1257,1226,1172,1121,1081,1041,1018,940,856,821,761,706,668,620,0.9780910654219092,33.528850854860714,29.108213213847918,27.26628086342592,24.108682548416773,21.214217426325064,19.21440516015261,16.688326508145295
B000005158,5499890565,강원,강원특별자치도교육청,서면초등학교,1954-12-07,강원특별자치도 철원군 서면 자등리 686-2 번지,강원특별자치도 철원군 서면 자등로 634,38.16847615,127.4169341,철원군,122.0,115.0,105.0,115.0,95.0,94.0,93.0,96.0,92.0,78.0,71.0,57.0,59.0,50.0,55.0,4191,3982,3715,3423,3113,2953,2801,2717,2691,2662,2639,2576,2560,2547,2460,2396,2295,2244,2153,2028,1919,1797,0.8472904694290112,64.91701817662707,61.325410094953796,59.511825816089086,56.27582249497752,51.83076298795615,47.95467109783351,43.616293018980656
B000005137,5704518437,강원,강원특별자치도교육청,함백초등학교,1943-10-05,강원특별자치도 정선군 신동읍 조동리 193,강원특별자치도 정선군 신동읍 조동6길 17-12,37.21635745,128.6732065,정선군,116.0,99.0,97.0,78.0,67.0,62.0,56.0,54.0,61.0,52.0,54.0,53.0,49.0,48.0,42.0,2631,2455,2278,2085,1907,1838,1727,1728,1701,1659,1661,1547,1531,1442,1347,1241,1111,1053,945,877,791,737,0.9838974282950265,31.63952160368612,24.158807316215587,20.821257864882583,14.606510610676295,10.69352159876864,5.7447413778265926,2.637367750723456
B000004829,5849356651,강원,강원특별자치도교육청,호반초등학교,1991-04-10,강원특별자치도 춘천시 후평동 15 번지,강원특별자치도 춘천시 후만로126번길 35,37.87432976,127.7609773,춘천시,731.0,630.0,567.0,489.0,398.0,358.0,326.0,293.0,279.0,280.0,303.0,288.0,289.0,276.0,252.0,18262,17364,16391,15453,14274,13761,13431,13141,13168,13407,13633,13454,13276,13220,12937,12275,11675,11214,10764,10194,9710,9298,0.9944269317753124,202.69837373879432,150.16142535889128,109.79553668699907,70.39282540207171,20.482724441163782,-21.89708058529129,-57.97245180615812
B000005210,5854797780,강원,강원특별자치도교육청,기린초등학교,1923-03-01,강원특별자치도 인제군 기린면 현리 433-1 번지,강원특별자치도 인제군 기린면 기린로 76,37.95832485,128.3194073,인제군,356.0,313.0,307.0,281.0,260.0,278.0,243.0,219.0,223.0,221.0,199.0,193.0,183.0,189.0,167.0,2767,2637,2529,2356,2224,2240,2270,2276,2294,2271,2262,2162,2112,2134,2083,2058,1946,1863,1763,1614,1490,1392,0.9064831519973037,177.62062082819637,148.69578575783873,127.26041691105587,101.43467131252225,62.95431037070722,30.930385828525573,5.621155141962674
B000005122,5934930384,강원,강원특별자치도교육청,안미초등학교,1943-05-31,강원특별자치도 평창군 대화면 하안미리 1635번지,강원특별자치도 평창군 대화면 하안미길 11-8,37.46067727,128.4344141,평창군,47.0,47.0,37.0,37.0,32.0,31.0,30.0,30.0,34.0,32.0,28.0,31.0,29.0,28.0,23.0,2962,2737,2506,2291,2063,1981,1886,1808,1738,1676,1646,1570,1466,1418,1329,1285,1168,1067,974,872,782,689,0.9286060188145426,24.836571169703106,23.363012957382043,22.090966979224547,20.91967711814883,19.635036625356108,18.501530308186062,17.330240447110345
B000004874,5970250248,강원,강원특별자치도교육청,단구초등학교,1935-07-01,강원특별자치도 원주시 단구동 106 번지,강원특별자치도 원주시 단구초교길 5,37.32258023,127.9638908,원주시,802.0,707.0,621.0,530.0,449.0,428.0,414.0,373.0,365.0,365.0,351.0,331.0,300.0,300.0,292.0,21266,20620,19692,18727,17843,17562,17366,17226,17344,17569,17725,17153,16782,16521,16050,15398,14460,14060,13627,13057,12660,12303,0.981938691412505,177.82956374029072,81.27581495730624,40.101508440041925,-4.469678364896481,-63.14306515199792,-104.0085643703826,-140.75663293704088
B000005160,5974242985,강원,강원특별자치도교육청,토성초등학교,1954-11-17,강원특별자치도 철원군 갈말읍 토성리 545-2 번지,강원특별자치도 철원군 갈말읍 토성길 43,38.241019,127.3455948,철원군,48.0,41.0,35.0,33.0,29.0,33.0,27.0,25.0,25.0,26.0,21.0,17.0,18.0,22.0,16.0,4191,3982,3715,3423,3113,2953,2801,2717,2691,2662,2639,2576,2560,2547,2460,2396,2295,2244,2153,2028,1919,1797,0.9441676497032442,18.538392324260485,17.005902156081675,16.232070487001288,14.851312018642162,12.954665770896113,11.30079024286156,9.449663505061416
B000005018,6037777006,강원,강원특별자치도교육청,장호초등학교,1939-09-11,강원특별자치도 삼척시 근덕면 용화리 166번지,강원특별자치도 삼척시 근덕면 용화안길 24,37.28869694,129.3019081,삼척시,29.0,32.0,35.0,31.0,27.0,23.0,22.0,21.0,19.0,13.0,21.0,15.0,15.0,13.0,9.0,4947,4688,4384,3958,3530,3340,3143,3015,2936,2912,2928,2841,2792,2748,2651,2515,2334,2264,2204,2070,1984,1923,0.8769821790797072,13.671826583056582,12.013361513756355,11.371966183087757,10.82219875680039,9.594384838091933,8.806384860413374,8.247454643687881
B000004961,6139398396,강원,강원특별자치도교육청,동해중앙초등학교,1941-07-01,강원특별자치도 동해시 천곡동 793 번지,강원특별자치도 동해시 천곡로 35,37.52533371,129.1084972,동해시,929.0,865.0,830.0,829.0,836.0,805.0,793.0,818.0,820.0,796.0,806.0,784.0,769.0,728.0,702.0,7945,7540,7176,6704,6185,5832,5516,5250,5017,4932,4831,4668,4582,4425,4320,4089,3792,3487,3188,2943,2655,2450,0.856519790478156,746.7324264618784,735.2869016139755,723.5330798004727,712.0104807111699,702.5688861396675,691.4701953780648,683.5700856345628
B000005164,6192882180,강원,강원특별자치도교육청,묘장초등학교,1968-03-01,강원특별자치도 철원군 철원읍 대마리 192-5 번지,강원특별자치도 철원군 철원읍 묘장로 344,38.26408626,127.1648028,철원군,53.0,56.0,52.0,53.0,42.0,41.0,37.0,39.0,39.0,32.0,28.0,27.0,30.0,28.0,27.0,4191,3982,3715,3423,3113,2953,2801,2717,2691,2662,2639,2576,2560,2547,2460,2396,2295,2244,2153,2028,1919,1797,0.9262881792877518,28.497530700437935,26.75823026162204,25.87996964400213,24.312877169425427,22.16027761643545,20.283210806228197,18.182273642509983
B000005217,6193709909,강원,강원특별자치도교육청,간성초등학교,1910-05-10,강원특별자치도 고성군 간성읍 신안리 192 번지,강원특별자치도 고성군 간성읍 간성로 39,38.37894215,128.4706698,강원특별자치도 고성군,511.0,481.0,476.0,468.0,423.0,376.0,361.0,340.0,328.0,312.0,308.0,305.0,289.0,295.0,293.0,2262,2082,1916,1766,1598,1486,1425,1346,1257,1226,1172,1121,1081,1041,1018,940,856,821,761,706,668,620,0.9821449379329865,269.56106456859595,252.94458299868958,246.0210490112286,234.15213360415265,223.27229448099968,215.7553147231849,206.26018239752415
B000004927,6395337998,강원,강원특별자치도교육청,남강초등학교,1987-03-01,강원특별자치도 강릉시 포남동 1278-117번지,강원특별자치도 강릉시 경강로2310번길 7,37.7670985,128.9146306,강릉시,482.0,422.0,379.0,331.0,304.0,282.0,248.0,256.0,230.0,229.0,210.0,175.0,163.0,145.0,142.0,15873,15217,14515,13637,12479,11873,11310,10841,10397,10272,10161,9702,9360,9108,8703,8116,7516,7020,6672,6162,5819,5561,0.9890076044054865,115.69329293075475,89.4389345408884,67.73533160526557,52.50780373914313,30.19159910775676,15.182857561549838,3.893483453907322
B000005061,6408136427,강원,강원특별자치도교육청,화계초등학교대룡분교장,1939-12-05,강원특별자치도 홍천군 북방면 북방리 455-2번지,강원특별자치도 홍천군 북방면 성동로 1144-5,37.79409762,127.8654081,홍천군,9.0,9.0,10.0,8.0,7.0,6.0,8.0,6.0,4.0,7.0,5.0,5.0,4.0,4.0,4.0,5274,4932,4668,4314,3918,3756,3578,3443,3317,3185,3160,2945,2825,2770,2681,2596,2464,2352,2219,2010,1864,1763,0.888849379552161,4.031980329347745,3.7357160207485123,3.4843402437552227,3.185831508575693,2.7167463532935727,2.389060072570179,2.1623729879601594
B000004950,6441266000,강원,강원특별자치도교육청,동호초등학교,1956-01-07,강원특별자치도 동해시 발한동 565-2 번지,강원특별자치도 동해시 발한로 123,37.54417872,129.1001844,동해시,586.0,546.0,483.0,418.0,378.0,337.0,297.0,273.0,253.0,263.0,305.0,315.0,303.0,292.0,265.0,7945,7540,7176,6704,6185,5832,5516,5250,5017,4932,4831,4668,4582,4425,4320,4089,3792,3487,3188,2943,2655,2450,0.9407931680620082,221.53036075080308,196.46082357702102,170.71601267465223,145.47765706872343,124.79739913075505,100.48754490163304,83.18365560659825
B000005020,6452094078,강원,강원특별자치도교육청,도계초등학교,1940-03-24,강원특별자치도 삼척시 도계읍 도계리 399번지,강원특별자치도 삼척시 도계읍 도계로 265,37.23334067,129.0446262,삼척시,388.0,366.0,332.0,314.0,292.0,261.0,266.0,260.0,232.0,212.0,195.0,179.0,149.0,134.0,109.0,4947,4688,4384,3958,3530,3340,3143,3015,2936,2912,2928,2841,2792,2748,2651,2515,2334,2264,2204,2070,1984,1923,0.9175092213631957,156.50695923958614,137.95617946693,130.7818447482232,124.63241498933166,110.89868852780722,102.08450587339601,95.83258561852296
B000004939,6452654659,강원,강원특별자치도교육청,옥계초등학교금진분교장,1961-08-07,강원특별자치도 강릉시 옥계면 금진리 417,강원특별자치도 강릉시 옥계면 금진안길 2,37.63495713,129.0434718,강릉시,32.0,26.0,27.0,24.0,22.0,21.0,23.0,15.0,11.0,10.0,6.0,8.0,12.0,9.0,7.0,15873,15217,14515,13637,12479,11873,11310,10841,10397,10272,10161,9702,9360,9108,8703,8116,7516,7020,6672,6162,5819,5561,0.9312728337053433,4.99471559875311,2.9283514073084227,1.2201570090474796,0.02166577800955949,-1.7347437847184253,-2.9160153141609726,-3.8045519164821897
B000005042,6534680902,강원,강원특별자치도교육청,내촌초등학교,1929-11-29,강원특별자치도 홍천군 내촌면 도관리 443-1 번지,강원특별자치도 홍천군 내촌면 내촌길 21,37.81544735,128.085196,홍천군,65.0,54.0,54.0,45.0,42.0,45.0,36.0,38.0,38.0,32.0,29.0,28.0,34.0,30.0,23.0,5274,4932,4668,4314,3918,3756,3578,3443,3317,3185,3160,2945,2825,2770,2681,2596,2464,2352,2219,2010,1864,1763,0.9619671043643915,25.271390181822277,23.48707023742749,21.97310179975918,20.17526428002807,17.350091034736327,15.376525035633001,14.011249926664263
B000004889,6559487044,강원,강원특별자치도교육청,동화초등학교,2004-05-19,강원특별자치도 원주시 문막읍 동화리 1534-2,강원특별자치도 원주시 문막읍 왕건로 83,37.3274788,127.8285781,원주시,948.0,894.0,809.0,790.0,769.0,749.0,687.0,637.0,578.0,535.0,448.0,479.0,360.0,333.0,291.0,21266,20620,19692,18727,17843,17562,17366,17226,17344,17569,17725,17153,16782,16521,16050,15398,14460,14060,13627,13057,12660,12303,0.855031148956735,313.4376085597378,201.16245398118258,153.28392324405877,101.45541372112211,33.228507420720916,-14.290934335874454,-57.02252301875751
B000005199,6641758441,강원,강원특별자치도교육청,부평초등학교,1946-04-01,강원특별자치도 인제군 남면 신남리 458 번지,강원특별자치도 인제군 남면 신남로94번길 7,37.96976661,128.0839125,인제군,147.0,158.0,137.0,121.0,107.0,98.0,88.0,88.0,99.0,92.0,90.0,90.0,79.0,56.0,47.0,2767,2637,2529,2356,2224,2240,2270,2276,2294,2271,2262,2162,2112,2134,2083,2058,1946,1863,1763,1614,1490,1392,0.9126314141774531,63.806912173499086,47.66909857634897,35.70982599988946,21.301063859576857,-0.16799172948893215,-18.034856783476556,-32.15544368098293
B000004883,6815457761,강원,강원특별자치도교육청,태봉초등학교,2002-03-01,강원특별자치도 원주시 태장동 485,강원특별자치도 원주시 흥양로51번길 113,37.38592017,127.9564644,원주시,1226.0,1108.0,1011.0,888.0,824.0,793.0,743.0,731.0,683.0,611.0,566.0,556.0,515.0,482.0,467.0,21266,20620,19692,18727,17843,17562,17366,17226,17344,17569,17725,17153,16782,16521,16050,15398,14460,14060,13627,13057,12660,12303,0.9474987104513276,368.42778397807706,230.01492714710548,170.99025472451603,107.09604682706345,22.98588862487395,-35.59609875454589,-88.2756188917067
B000005098,6891327261,강원,강원특별자치도교육청,옥동초등학교,1925-08-31,강원특별자치도 영월군 김삿갓면 옥동리 429 번지,강원특별자치도 영월군 김삿갓면 영월동로 1679,37.1304806,128.5698388,영월군,57.0,56.0,57.0,50.0,46.0,40.0,38.0,38.0,37.0,40.0,34.0,34.0,36.0,32.0,30.0,2789,2519,2362,2124,1922,1802,1699,1627,1519,1472,1419,1320,1246,1184,1114,1022,947,886,837,762,694,653,0.9677815253985576,29.039808776612958,27.72304801221637,26.652082590507142,25.79179889110137,24.47503812670478,23.28117503365187,22.561345815781735
B000004921,6927842319,강원,강원특별자치도교육청,영동초등학교,1985-06-07,강원특별자치도 강릉시 교동 1038 번지,강원특별자치도 강릉시 화부산로 28,37.76044419,128.8861601,강릉시,280.0,234.0,212.0,197.0,203.0,174.0,165.0,171.0,138.0,129.0,136.0,135.0,129.0,139.0,147.0,15873,15217,14515,13637,12479,11873,11310,10841,10397,10272,10161,9702,9360,9108,8703,8116,7516,7020,6672,6162,5819,5561,0.9420149670157647,109.45199391367072,98.46081160576935,89.3747675645709,82.99988182598811,73.65737686427197,67.37408431158836,62.64787591919077
B000004989,6955364465,강원,강원특별자치도교육청,양양초등학교,1906-09-08,강원특별자치도 양양군 양양읍 구교리 20 번지,강원특별자치도 양양군 양양읍 군청길 39,38.07732034,128.6217432,양양군,849.0,806.0,743.0,695.0,623.0,576.0,556.0,534.0,528.0,505.0,534.0,510.0,519.0,501.0,484.0,1811,1716,1624,1492,1333,1281,1213,1170,1121,1102,1097,1033,993,948,899,808,770,741,702,652,603,587,0.981316643704185,414.24083564694536,398.6774923308064,386.800204010595,370.82729902824184,350.3492157175326,330.2806940730376,323.72770741361063
B000005039,7023158371,강원,강원특별자치도교육청,두촌초등학교,1922-10-30,강원특별자치도 홍천군 두촌면 자은리 915번지,강원특별자치도 홍천군 두촌면 자은로 329,37.86844665,128.0169715,홍천군,66.0,65.0,62.0,57.0,52.0,50.0,49.0,41.0,36.0,43.0,41.0,37.0,41.0,36.0,26.0,5274,4932,4668,4314,3918,3756,3578,3443,3317,3185,3160,2945,2825,2770,2681,2596,2464,2352,2219,2010,1864,1763,0.9551041656454169,32.228929200392486,30.405934117413665,28.85915041064375,27.022344758854484,24.135935877471344,22.11959283114628,20.72472538129127
B000005002,7048858761,강원,강원특별자치도교육청,회룡초등학교,1936-04-01,강원특별자치도 양양군 강현면 회룡리 190,강원특별자치도 양양군 강현면 회룡1길 161,38.13539555,128.5770198,양양군,46.0,46.0,45.0,40.0,37.0,38.0,42.0,38.0,33.0,30.0,31.0,26.0,27.0,23.0,27.0,1811,1716,1624,1492,1333,1281,1213,1170,1121,1102,1097,1033,993,948,899,808,770,741,702,652,603,587,0.9107416130730368,24.211798616661085,23.273131137366704,22.556779640010465,21.59341038494518,20.35832159639994,19.147934583625606,18.75270617129113
B000005048,7062907099,강원,강원특별자치도교육청,삼생초등학교,1941-10-02,강원특별자치도 홍천군 서석면 생곡리 683-1 번지,강원특별자치도 홍천군 서석면 구룡령로 2933,37.70045828,128.2264767,홍천군,48.0,47.0,53.0,48.0,35.0,26.0,21.0,18.0,17.0,18.0,27.0,24.0,25.0,22.0,19.0,5274,4932,4668,4314,3918,3756,3578,3443,3317,3185,3160,2945,2825,2770,2681,2596,2464,2352,2219,2010,1864,1763,0.8721706329312742,15.433082083518592,13.627287980483516,12.095099044574958,10.275624683183551,7.416450686711343,5.419132966687691,4.0374268726987275
B000005089,7085181772,강원,강원특별자치도교육청,봉래초등학교,1946-05-20,강원특별자치도 영월군 영월읍 덕포리 557 번지,강원특별자치도 영월군 영월읍 중앙로 168-17,37.17711747,128.4749781,영월군,148.0,168.0,136.0,128.0,119.0,128.0,118.0,108.0,97.0,101.0,96.0,80.0,84.0,87.0,71.0,2789,2519,2362,2124,1922,1802,1699,1627,1519,1472,1419,1320,1246,1184,1114,1022,947,886,837,762,694,653,0.9449662188141821,75.05450510817033,71.27820906133047,68.20682160990071,65.73964152596534,61.96334547912548,58.53950372999068,56.47512855771822
B000005093,7093751966,강원,강원특별자치도교육청,연당초등학교,1935-10-29,강원특별자치도 영월군 남면 연당리 1097-4 번지,강원특별자치도 영월군 남면 연당로 17,37.18653689,128.4023188,영월군,50.0,52.0,49.0,51.0,48.0,41.0,36.0,36.0,32.0,35.0,41.0,30.0,35.0,29.0,28.0,2789,2519,2362,2124,1922,1802,1699,1627,1519,1472,1419,1320,1246,1184,1114,1022,947,886,837,762,694,653,0.9011355041260262,28.6829810811723,27.551478830182205,26.63119033271026,25.89194219539673,24.760439944406635,23.734544570175615,23.115990006301026
B000004841,7134479165,강원,강원특별자치도교육청,후평초등학교,1980-10-02,강원특별자치도 춘천시 후평동 511-36,강원특별자치도 춘천시 춘천로295번길 17,37.88309525,127.743936,춘천시,911.0,828.0,724.0,647.0,559.0,523.0,467.0,427.0,400.0,398.0,375.0,342.0,335.0,319.0,279.0,18262,17364,16391,15453,14274,13761,13431,13141,13168,13407,13633,13454,13276,13220,12937,12275,11675,11214,10764,10194,9710,9298,0.9636917466226043,274.30308768190025,208.22030316607243,157.44669706307832,107.88460867620756,45.105963386171425,-8.200816123262939,-53.57766149079794
B000005033,7135156154,강원,강원특별자치도교육청,홍천초등학교,1908-10-05,강원특별자치도 홍천군 홍천읍 희망리 313,강원특별자치도 홍천군 홍천읍 희망로4길 12,37.69250906,127.883816,홍천군,1154.0,1083.0,1028.0,967.0,882.0,875.0,821.0,797.0,794.0,778.0,718.0,629.0,559.0,501.0,433.0,5274,4932,4668,4314,3918,3756,3578,3443,3317,3185,3160,2945,2825,2770,2681,2596,2464,2352,2219,2010,1864,1763,0.9580475864499798,541.6328826217263,509.1499499533967,481.58867374996566,448.8596582583913,397.428348200203,361.50025600644466,336.6458908587077
B000004854,7279172003,강원,강원특별자치도교육청,지촌초등학교,1929-04-01,강원특별자치도 춘천시 사북면 지촌리 347 번지,강원특별자치도 춘천시 사북면 지촌길 130,38.03829095,127.6449579,춘천시,50.0,52.0,43.0,37.0,34.0,29.0,29.0,27.0,30.0,30.0,26.0,29.0,21.0,24.0,19.0,18262,17364,16391,15453,14274,13761,13431,13141,13168,13407,13633,13454,13276,13220,12937,12275,11675,11214,10764,10194,9710,9298,0.9485628779329044,20.76867484747467,17.51290371426606,15.011386226917438,12.569557877010972,9.476575300462784,6.8502532530078355,4.614623741537919
B000004997,7315187633,강원,강원특별자치도교육청,인구초등학교,1923-05-10,강원특별자치도 양양군 현남면 인구리 27 번지,강원특별자치도 양양군 현남면 해송천로 10,37.968083,128.7583979,양양군,75.0,74.0,65.0,61.0,57.0,52.0,45.0,32.0,34.0,38.0,31.0,31.0,31.0,32.0,30.0,1811,1716,1624,1492,1333,1281,1213,1170,1121,1102,1097,1033,993,948,899,808,770,741,702,652,603,587,0.9665132598679611,20.512008794799712,18.35914792976707,16.716175164347412,14.50666006602443,11.673948401507793,8.89789097028148,7.991423237636155
B000005054,7367754638,강원,강원특별자치도교육청,한서초등학교,1947-04-06,강원특별자치도 홍천군 서면 모곡리 492-1 번지,강원특별자치도 홍천군 서면 밤벌길2번길 12,37.6925275,127.6019824,홍천군,24.0,24.0,23.0,22.0,21.0,22.0,19.0,19.0,17.0,17.0,14.0,15.0,16.0,15.0,16.0,5274,4932,4668,4314,3918,3756,3578,3443,3317,3185,3160,2945,2825,2770,2681,2596,2464,2352,2219,2010,1864,1763,0.9310711274367918,14.732550384628732,14.206988003835411,13.761056286798652,13.231512372817503,12.39937193656141,11.818068091138493,11.415933239167845
B000005171,7436782896,강원,강원특별자치도교육청,화천초등학교,1912-03-30,강원특별자치도 화천군 화천읍 아리 211-2,강원특별자치도 화천군 화천읍 화천새싹길 57,38.10474334,127.7088476,화천군,700.0,637.0,591.0,587.0,547.0,534.0,474.0,477.0,432.0,435.0,459.0,442.0,418.0,411.0,429.0,2317,2211,2115,1950,1841,1753,1677,1627,1584,1565,1578,1523,1512,1529,1507,1450,1375,1332,1234,1105,1039,976,0.9812889697584702,407.3971248163856,383.2391088257343,369.3885129910943,337.82203876330993,296.2702512593897,275.0111971876166,254.7184637554695
B000004923,7510031878,강원,강원특별자치도교육청,노암초등학교,1979-03-15,강원특별자치도 강릉시 노암동 415-2 번지,강원특별자치도 강릉시 노암등길 71,37.74082297,128.901541,강릉시,779.0,722.0,666.0,627.0,537.0,496.0,450.0,409.0,374.0,356.0,330.0,308.0,289.0,278.0,270.0,15873,15217,14515,13637,12479,11873,11310,10841,10397,10272,10161,9702,9360,9108,8703,8116,7516,7020,6672,6162,5819,5561,0.997250050047902,204.31186853296902,159.91268111123009,123.20935284259247,97.45782413798389,59.71851482950575,34.336979353411664,15.245328762063878
B000005195,7564701199,강원,강원특별자치도교육청,해안초등학교,1933-04-06,강원특별자치도 양구군 해안면 현리 208 번지,강원특별자치도 양구군 해안면 펀치볼로 1341-33,38.28940861,128.1375394,양구군,75.0,73.0,69.0,68.0,70.0,68.0,51.0,43.0,47.0,35.0,21.0,21.0,22.0,22.0,19.0,1890,1803,1724,1634,1493,1444,1374,1299,1242,1247,1258,1231,1242,1286,1289,1266,1203,1180,1131,1064,1004,931,0.8442418330015606,33.30322205360811,28.080004227436035,26.173115179785924,22.110612426096537,16.555761722072276,11.581268554289352,5.528968533486804
B000005094,7598803341,강원,강원특별자치도교육청,쌍룡초등학교,1941-09-25,강원특별자치도 영월군 한반도면 쌍용리 597 번지,강원특별자치도 영월군 한반도면 무동길 50,37.17792101,128.3192001,영월군,68.0,61.0,57.0,54.0,46.0,44.0,37.0,35.0,40.0,39.0,38.0,38.0,34.0,37.0,35.0,2789,2519,2362,2124,1922,1802,1699,1627,1519,1472,1419,1320,1246,1184,1114,1022,947,886,837,762,694,653,0.9556104455718945,29.74033611311122,28.232445691091396,27.006028147848603,26.020873072128982,24.51298265010916,23.14582866747785,22.321515236773678
B000004843,7775343656,강원,강원특별자치도교육청,성원초등학교,2005-08-01,강원특별자치도 춘천시 퇴계동 퇴계4지구 1035번지,강원특별자치도 춘천시 승지골길16번길 36,37.84832953,127.744912,춘천시,1774.0,1757.0,1633.0,1517.0,1337.0,1261.0,1200.0,1124.0,1080.0,1053.0,1037.0,992.0,869.0,791.0,722.0,18262,17364,16391,15453,14274,13761,13431,13141,13168,13407,13633,13454,13276,13220,12937,12275,11675,11214,10764,10194,9710,9298,0.9147793624152878,837.3302407743961,729.3575595803857,646.3985495296542,565.4190386341465,462.84499149983685,375.7470286700018,301.6057875834481
B000005090,7813063025,강원,강원특별자치도교육청,내성초등학교,1969-03-01,강원특별자치도 영월군 영월읍 영흥리 789-1 번지,강원특별자치도 영월군 영월읍 내성안길 9,37.19013485,128.4751137,영월군,224.0,205.0,205.0,205.0,202.0,208.0,186.0,181.0,167.0,171.0,171.0,158.0,159.0,148.0,135.0,2789,2519,2362,2124,1922,1802,1699,1627,1519,1472,1419,1320,1246,1184,1114,1022,947,886,837,762,694,653,0.9196490572070658,148.0837397781345,144.58162699081538,141.73324192379582,139.44519490274735,135.9430821154282,132.76783318825886,130.85334486452442
B000005011,7827954113,강원,강원특별자치도교육청,임원초등학교,1934-02-26,강원특별자치도 삼척시 원덕읍 임원리 800 번지,강원특별자치도 삼척시 원덕읍 삼척로 1246,37.23608331,129.3422397,삼척시,77.0,61.0,64.0,55.0,42.0,36.0,39.0,35.0,29.0,31.0,24.0,25.0,23.0,24.0,28.0,4947,4688,4384,3958,3530,3340,3143,3015,2936,2912,2928,2841,2792,2748,2651,2515,2334,2264,2204,2070,1984,1923,0.9754748071532864,20.330367122085278,16.34686671992005,14.8062864538893,13.485789083005798,10.536678288032654,8.6439653897663,7.3014597293680765
B000004926,8009052574,강원,강원특별자치도교육청,포남초등학교,1981-09-01,강원특별자치도 강릉시 포남동 1085번지,강원특별자치도 강릉시 가작로287번길 20,37.77276174,128.9052949,강릉시,458.0,398.0,359.0,309.0,285.0,260.0,254.0,236.0,232.0,220.0,205.0,178.0,159.0,150.0,149.0,15873,15217,14515,13637,12479,11873,11310,10841,10397,10272,10161,9702,9360,9108,8703,8116,7516,7020,6672,6162,5819,5561,0.9861702232592284,120.86380852271776,97.2035291985215,77.64436495718593,63.92140294915208,43.810165523585255,30.284372509919734,20.110452400515328
B000005091,8022046804,강원,강원특별자치도교육청,영월초등학교,1912-03-06,강원특별자치도 영월군 영월읍 하송리 23-1 번지,강원특별자치도 영월군 영월읍 하송안길 100,37.18247488,128.4679901,영월군,1089.0,996.0,942.0,922.0,873.0,809.0,774.0,741.0,697.0,669.0,643.0,609.0,605.0,598.0,579.0,2789,2519,2362,2124,1922,1802,1699,1627,1519,1472,1419,1320,1246,1184,1114,1022,947,886,837,762,694,653,0.9908272011484105,542.670743703555,518.9920809918847,499.733435319726,484.2633756814347,460.58471296976427,439.11605877784973,426.1717231621366
B000004882,8029057562,강원,강원특별자치도교육청,일산초등학교,1949-11-03,강원특별자치도 원주시 일산동 일산초교길 1,강원특별자치도 원주시 일산초교길 1,37.34637268,127.942107,원주시,831.0,760.0,678.0,603.0,510.0,439.0,419.0,404.0,377.0,346.0,352.0,307.0,275.0,274.0,249.0,21266,20620,19692,18727,17843,17562,17366,17226,17344,17569,17725,17153,16782,16521,16050,15398,14460,14060,13627,13057,12660,12303,0.9714065478083058,147.71575350155604,35.37165982671695,-12.536269245709263,-64.39660246661037,-132.66540139481754,-180.21402099920033,-222.97184769634055
B000005055,8059568762,강원,강원특별자치도교육청,모곡초등학교,1934-11-21,강원특별자치도 홍천군 서면 모곡리 184-2,강원특별자치도 홍천군 서면 설밀길 76,37.676874,127.6006639,홍천군,29.0,25.0,30.0,33.0,26.0,24.0,19.0,19.0,16.0,12.0,9.0,5.0,9.0,8.0,8.0,5274,4932,4668,4314,3918,3756,3578,3443,3317,3185,3160,2945,2825,2770,2681,2596,2464,2352,2219,2010,1864,1763,0.8875509698550573,7.471525942621149,6.137621062448638,5.005822982302266,3.661812762128452,1.549796701855314,0.07441706166450857,-0.9462222784674879
B000004865,8087802767,강원,강원특별자치도교육청,무실초등학교,2005-03-02,강원특별자치도 원주시 무실동 1652번지,강원특별자치도 원주시 만대로 155,37.33543002,127.9216593,원주시,1627.0,1711.0,1292.0,1190.0,1156.0,972.0,860.0,750.0,725.0,711.0,677.0,650.0,542.0,529.0,504.0,21266,20620,19692,18727,17843,17562,17366,17226,17344,17569,17725,17153,16782,16521,16050,15398,14460,14060,13627,13057,12660,12303,0.950145536969673,290.644659337328,58.16005482740502,-40.98050146680498,-148.30015365528743,-289.575446374537,-387.9724484965409,-476.4553949891233
B000004861,8154865503,강원,강원특별자치도교육청,지촌초등학교지암분교장,1940-03-30,강원특별자치도 춘천시 사북면 지암리 308,강원특별자치도 춘천시 사북면 화악지암길 431,37.981211,127.6070879,춘천시,25.0,24.0,23.0,26.0,19.0,21.0,15.0,12.0,14.0,10.0,15.0,16.0,15.0,14.0,11.0,18262,17364,16391,15453,14274,13761,13431,13141,13168,13407,13633,13454,13276,13220,12937,12275,11675,11214,10764,10194,9710,9298,0.8482468352667936,11.887003669474037,10.308204849145703,9.095161088860102,7.9110619736138545,6.411203094301939,5.137638712570418,4.053530189278295
B000004956,8229235649,강원,강원특별자치도교육청,청운초등학교,2002-09-01,강원특별자치도 동해시 쇄운동 75번지,강원특별자치도 동해시 청운로 60,37.48530257,129.1041723,동해시,1821.0,1778.0,1765.0,1625.0,1407.0,1303.0,1224.0,1135.0,1024.0,977.0,960.0,937.0,857.0,791.0,792.0,7945,7540,7176,6704,6185,5832,5516,5250,5017,4932,4831,4668,4582,4425,4320,4089,3792,3487,3188,2943,2655,2450,0.9912638919641312,739.4084515819375,647.431711366469,552.977483199069,460.38137099561754,384.5083024677059,295.3187361981609,231.83310742990818
B000005138,8261761188,강원,강원특별자치도교육청,증산초등학교,1945-03-31,강원특별자치도 정선군 남면 무릉리 412-5 번지,강원특별자치도 정선군 남면 민둥산로 12,37.25492831,128.7807294,정선군,125.0,112.0,95.0,84.0,91.0,101.0,96.0,91.0,88.0,92.0,82.0,61.0,62.0,59.0,48.0,2631,2455,2278,2085,1907,1838,1727,1728,1701,1659,1661,1547,1531,1442,1347,1241,1111,1053,945,877,791,737,0.848279669067838,57.62748506522617,51.470075950363025,48.722924191424084,43.60753815753778,40.386739543609366,36.3133765906999,33.75568357375675
B000005013,8330463826,강원,강원특별자치도교육청,미로초등학교,1934-11-15,강원특별자치도 삼척시 미로면 하거노리 325 번지,강원특별자치도 삼척시 미로면 미로강변로1길 10-11,37.41491592,129.1150046,삼척시,76.0,68.0,58.0,56.0,60.0,59.0,53.0,56.0,55.0,56.0,57.0,52.0,51.0,42.0,44.0,4947,4688,4384,3958,3530,3340,3143,3015,2936,2912,2928,2841,2792,2748,2651,2515,2334,2264,2204,2070,1984,1923,0.8346900015659421,48.15763887260348,46.48931594619138,45.84410818459554,45.29107296037053,44.05596095960135,43.263277138212175,42.701024660250084
B000004972,8386232316,강원,강원특별자치도교육청,동점초등학교,1947-02-10,강원특별자치도 태백시 동점동 60-1,강원특별자치도 태백시 방터골1길 59,37.10057564,129.0498649,태백시,42.0,38.0,34.0,32.0,31.0,30.0,30.0,34.0,35.0,28.0,32.0,24.0,18.0,20.0,20.0,3336,3187,3038,2901,2775,2795,2772,2757,2776,2751,2721,2560,2422,2270,2039,1879,1688,1526,1351,1182,1067,916,0.9185378784714272,13.431005737239175,9.784999654172218,6.69257564654475,3.3519941568237144,0.12594688960740186,-2.0692923750664214,-4.951736974768572
B000005077,8389569520,강원,강원특별자치도교육청,공근초등학교,1925-10-03,강원특별자치도 횡성군 공근면 학담리 113 번지,강원특별자치도 횡성군 공근면 영서로 207,37.53371687,127.9609625,횡성군,94.0,78.0,70.0,59.0,46.0,57.0,60.0,58.0,51.0,62.0,56.0,49.0,57.0,51.0,50.0,2731,2495,2314,2111,1980,1924,1829,1759,1712,1671,1649,1530,1455,1429,1357,1284,1172,1147,1099,1019,936,894,0.8368865182796896,44.78845927350558,41.87211246018407,41.22114218935338,39.97127926935845,37.88817440270023,35.72695310354233,34.63332304854676
B000005219,8419815719,강원,강원특별자치도교육청,거진초등학교,1929-03-20,강원특별자치도 고성군 거진읍 자산리 72 번지,강원특별자치도 고성군 거진읍 자산길 19,38.43847289,128.4448362,강원특별자치도 고성군,249.0,225.0,196.0,179.0,158.0,143.0,143.0,141.0,135.0,122.0,110.0,105.0,87.0,87.0,83.0,2262,2082,1916,1766,1598,1486,1425,1346,1257,1226,1172,1121,1081,1041,1018,940,856,821,761,706,668,620,0.990007065111361,79.56430273171736,68.98342985162952,64.57473281825959,57.0169664753397,50.089013994329804,45.30242864381388,39.25621556947797
B000005097,8543917238,강원,강원특별자치도교육청,녹전초등학교,1936-10-31,강원특별자치도 영월군 산솔면 녹전리 756-2 번지,강원특별자치도 영월군 산솔면 유전길 3-2,37.14775137,128.6815846,영월군,53.0,49.0,43.0,34.0,36.0,34.0,31.0,25.0,20.0,24.0,25.0,26.0,24.0,24.0,28.0,2789,2519,2362,2124,1922,1802,1699,1627,1519,1472,1419,1320,1246,1184,1114,1022,947,886,837,762,694,653,0.9242898129592185,18.876410984932814,17.53565851534155,16.445179840073983,15.569221559941024,14.228469090349757,13.012853517920343,12.279908834543784
B000004870,8687828481,강원,강원특별자치도교육청,관설초등학교,1969-04-01,강원특별자치도 원주시 관설동 1277,강원특별자치도 원주시 치악로 1355,37.30874675,127.9760113,원주시,90.0,76.0,68.0,64.0,63.0,58.0,53.0,53.0,43.0,47.0,49.0,37.0,52.0,41.0,42.0,21266,20620,19692,18727,17843,17562,17366,17226,17344,17569,17725,17153,16782,16521,16050,15398,14460,14060,13627,13057,12660,12303,0.9170922234079808,32.860586738320464,24.49642350430885,20.929616155050155,17.06854719947762,11.98584672678399,8.445790432644742,5.262414873431368
B000004976,8698922097,강원,강원특별자치도교육청,영랑초등학교,1938-04-01,강원특별자치도 속초시 영랑동 163-1 번지,강원특별자치도 속초시 중앙로 331,38.21790959,128.5905961,속초시,445.0,366.0,309.0,277.0,242.0,231.0,217.0,214.0,198.0,201.0,188.0,168.0,158.0,160.0,141.0,6800,6397,5990,5525,4946,4620,4283,4033,3950,3936,3946,3840,3828,3862,3679,3395,3166,2984,2790,2525,2377,2302,0.9687450624976495,136.94070937842574,119.06023565928584,104.84955348948904,89.70190326454082,69.01052537994661,57.4545860330789,51.59853568838241
B000004902,8722272872,강원,강원특별자치도교육청,신림초등학교,1925-08-31,강원특별자치도 원주시 신림면 신림리 518번지,강원특별자치도 원주시 신림면 치악로 34,37.23155517,128.0786998,원주시,107.0,92.0,89.0,81.0,86.0,76.0,66.0,57.0,50.0,49.0,49.0,41.0,48.0,43.0,44.0,21266,20620,19692,18727,17843,17562,17366,17226,17344,17569,17725,17153,16782,16521,16050,15398,14460,14060,13627,13057,12660,12303,0.8777365668266787,32.653791004922255,20.75221182411488,15.676911533791923,10.18289896951731,2.9505960558070967,-2.0866394823384553,-6.616344991451712
B000004940,8750177502,강원,강원특별자치도교육청,옥계초등학교,1920-09-01,강원특별자치도 강릉시 옥계면 현내리 344-1,강원특별자치도 강릉시 옥계면 옥계로 1074,37.6094088,129.0347767,강릉시,176.0,139.0,141.0,114.0,103.0,103.0,93.0,81.0,88.0,80.0,72.0,58.0,52.0,55.0,55.0,15873,15217,14515,13637,12479,11873,11310,10841,10397,10272,10161,9702,9360,9108,8703,8116,7516,7020,6672,6162,5819,5561,0.9755053346040796,40.81103636483503,31.553268268670323,23.900179975840828,18.5306744800653,10.661571598325295,5.369214170017813,1.3883738886669903
B000004912,8856809794,강원,강원특별자치도교육청,초당초등학교,1992-03-01,강원특별자치도 강릉시 초당동 산16 번지,강원특별자치도 강릉시 연당길 35-11,37.781684,128.913111,강릉시,709.0,649.0,604.0,572.0,539.0,506.0,460.0,409.0,378.0,367.0,333.0,294.0,269.0,267.0,261.0,15873,15217,14515,13637,12479,11873,11310,10841,10397,10272,10161,9702,9360,9108,8703,8116,7516,7020,6672,6162,5819,5561,0.9853215644495057,221.61226803008572,183.40368158835082,151.81791679651667,129.6569366603104,97.17963818483577,75.33706293564398,58.907370765697976
B000005120,8862061023,강원,강원특별자치도교육청,방림초등학교,1937-09-01,강원특별자치도 평창군 방림면 방림리 1344 번지,강원특별자치도 평창군 방림면 방림1길 9,37.42747954,128.3921733,평창군,34.0,32.0,30.0,33.0,28.0,26.0,22.0,26.0,26.0,23.0,22.0,23.0,21.0,20.0,15.0,2962,2737,2506,2291,2063,1981,1886,1808,1738,1676,1646,1570,1466,1418,1329,1285,1168,1067,974,872,782,689,0.9162476108471042,18.907791774104595,17.745393749574255,16.741956138654896,15.817998734541034,14.80462609777099,13.910473771209187,12.986516367095323
B000004835,8864751815,강원,강원특별자치도교육청,우석초등학교,1999-09-01,강원특별자치도 춘천시 석사동 754 번지,강원특별자치도 춘천시 애막골길16번길 6,37.86466554,127.7496908,춘천시,1078.0,977.0,845.0,790.0,723.0,692.0,615.0,546.0,539.0,511.0,519.0,492.0,452.0,438.0,396.0,18262,17364,16391,15453,14274,13761,13431,13141,13168,13407,13633,13454,13276,13220,12937,12275,11675,11214,10764,10194,9710,9298,0.9529322563345963,403.07825909351016,334.1474230011853,281.18556393691586,229.48743686767205,164.00314257996354,108.39893479882141,61.06642734875834
B000005118,8885215461,강원,강원특별자치도교육청,횡계초등학교,1967-05-06,강원특별자치도 평창군 대관령면 횡계리 304-3,강원특별자치도 평창군 대관령면 꽃밭양지길 16-3,37.67651721,128.7118375,평창군,261.0,243.0,208.0,182.0,177.0,175.0,174.0,150.0,147.0,138.0,131.0,113.0,107.0,116.0,91.0,2962,2737,2506,2291,2063,1981,1886,1808,1738,1676,1646,1570,1466,1418,1329,1285,1168,1067,974,872,782,689,0.9836856706107988,96.35827214247071,84.80836065604305,74.83792424468243,65.65722537085531,55.58807176730299,46.70352447005095,37.52282559622384
B000004839,8908989489,강원,강원특별자치도교육청,동춘천초등학교,1972-10-06,강원특별자치도 춘천시 효자동 44-3 번지,강원특별자치도 춘천시 성심로 77,37.87687276,127.7433163,춘천시,408.0,364.0,313.0,296.0,283.0,267.0,260.0,253.0,254.0,239.0,248.0,233.0,246.0,231.0,212.0,18262,17364,16391,15453,14274,13761,13431,13141,13168,13407,13633,13454,13276,13220,12937,12275,11675,11214,10764,10194,9710,9298,0.9671254509363444,211.42295272132668,193.3409021042603,179.44785988014763,165.88632191734786,148.7083738311348,134.12218633336795,121.70584490964899
B000005142,9000945806,강원,강원특별자치도교육청,남평초등학교,1940-08-28,강원특별자치도 정선군 북평면 남평리 396 번지,강원특별자치도 정선군 북평면 송석길 137,37.43121093,128.6628689,정선군,35.0,40.0,39.0,36.0,28.0,26.0,22.0,26.0,20.0,22.0,25.0,25.0,23.0,14.0,9.0,2631,2455,2278,2085,1907,1838,1727,1728,1701,1659,1661,1547,1531,1442,1347,1241,1111,1053,945,877,791,737,0.8910667057836215,13.63828322019048,10.936495759909313,9.73108289301464,7.486521002934904,6.073278331403216,4.285942011524906,3.1636610664850373
B000004996,9176822006,강원,강원특별자치도교육청,남애초등학교,1963-01-07,강원특별자치도 양양군 현남면 남애리 554 번지,강원특별자치도 양양군 현남면 갯마을길 10,37.94661618,128.7807802,양양군,28.0,26.0,30.0,21.0,16.0,10.0,12.0,13.0,11.0,12.0,16.0,13.0,10.0,14.0,14.0,1811,1716,1624,1492,1333,1281,1213,1170,1121,1102,1097,1033,993,948,899,808,770,741,702,652,603,587,0.8590083454983626,7.4322496508876625,6.670799077523441,6.089692061008639,5.308203314661146,4.306294665497694,3.3244241893175115,3.003813421585207
B000005117,9215296149,강원,강원특별자치도교육청,진부초등학교,1922-01-20,강원특별자치도 평창군 진부면 하진부리 210 번지,강원특별자치도 평창군 진부면 진부새싹길 52,37.63947236,128.557074,평창군,545.0,489.0,434.0,373.0,321.0,288.0,289.0,273.0,271.0,259.0,234.0,219.0,191.0,191.0,168.0,2962,2737,2506,2291,2063,1981,1886,1808,1738,1676,1646,1570,1466,1418,1329,1285,1168,1067,974,872,782,689,0.9958694650157343,154.60533737257288,128.0360012257524,105.10007856909536,83.9808626575201,60.81785165772786,40.37990077555824,19.26068486398296
B000004954,9266510248,강원,강원특별자치도교육청,동해초등학교,1989-10-02,강원특별자치도 동해시 용정동 475-3 번지,강원특별자치도 동해시 봉오주택길 22,37.51222384,129.1197999743,동해시,541.0,483.0,386.0,322.0,346.0,332.0,336.0,319.0,297.0,289.0,291.0,269.0,260.0,260.0,256.0,7945,7540,7176,6704,6185,5832,5516,5250,5017,4932,4831,4668,4582,4425,4320,4089,3792,3487,3188,2943,2655,2450,0.9241057705802809,231.77975703081336,212.76330025500675,193.23461568725924,174.0901019634674,158.40312583527677,139.9629253254037,126.83708815691764
B000005038,9301355361,강원,강원특별자치도교육청,화촌초등학교,1925-07-01,강원특별자치도 홍천군 화촌면 성산리 367-1 번지,강원특별자치도 홍천군 화촌면 성산로147번길 8,37.77248726,127.9666209,홍천군,66.0,54.0,52.0,37.0,36.0,41.0,33.0,33.0,28.0,27.0,26.0,24.0,34.0,18.0,17.0,5274,4932,4668,4314,3918,3756,3578,3443,3317,3185,3160,2945,2825,2770,2681,2596,2464,2352,2219,2010,1864,1763,0.9400688163508506,18.56020139715686,16.495067994298942,14.742833591874046,12.662055238994476,9.392260684469438,7.108097981308404,5.527958029121663
B000004959,9385318160,강원,강원특별자치도교육청,송정초등학교,1938-04-29,강원특별자치도 동해시 송정동 1058번지,강원특별자치도 동해시 동해역길 25,37.49516696,129.1228649,동해시,114.0,120.0,103.0,104.0,105.0,99.0,96.0,92.0,98.0,90.0,81.0,81.0,82.0,74.0,70.0,7945,7540,7176,6704,6185,5832,5516,5250,5017,4932,4831,4668,4582,4425,4320,4089,3792,3487,3188,2943,2655,2450,0.9179558943290466,76.4321759140544,73.12678095463065,69.73235178754564,66.40469827620657,63.678025666580915,60.47279419077606,58.19129261945663
B000004872,9426174104,강원,강원특별자치도교육청,북원초등학교,1900-01-01,강원특별자치도 원주시 단계동 796번지,강원특별자치도 원주시 단구로 60,37.34305588,127.9383479,원주시,687.0,600.0,500.0,450.0,396.0,383.0,347.0,302.0,291.0,265.0,230.0,201.0,196.0,195.0,176.0,21266,20620,19692,18727,17843,17562,17366,17226,17344,17569,17725,17153,16782,16521,16050,15398,14460,14060,13627,13057,12660,12303,0.9523671656938729,92.35224446178927,-1.1092879330183223,-40.9649520672649,-84.10870849258663,-140.9030298838877,-180.45977653712725,-216.03095677694205
B000005114,9490029454,강원,강원특별자치도교육청,봉평초등학교,1931-10-01,강원특별자치도 평창군 봉평면 창동리 329 번지,강원특별자치도 평창군 봉평면 기풍8길 22,37.61588866,128.3813243,평창군,244.0,223.0,202.0,192.0,191.0,190.0,190.0,194.0,193.0,198.0,182.0,173.0,161.0,148.0,147.0,2962,2737,2506,2291,2063,1981,1886,1808,1738,1676,1646,1570,1466,1418,1329,1285,1168,1067,974,872,782,689,0.8979400525140853,158.15615143074652,152.71726607683507,148.02215991662095,143.69894335325546,138.95735099343523,134.77359302888797,130.45037646552248
B000005041,9558470845,강원,강원특별자치도교육청,서석초등학교,1926-12-10,강원특별자치도 홍천군 서석면 풍암리 194 번지,강원특별자치도 홍천군 서석면 풍암길 58,37.71239602,128.1882303,홍천군,145.0,122.0,106.0,87.0,73.0,64.0,68.0,64.0,56.0,55.0,57.0,48.0,46.0,49.0,47.0,5274,4932,4668,4314,3918,3756,3578,3443,3317,3185,3160,2945,2825,2770,2681,2596,2464,2352,2219,2010,1864,1763,0.9701837915957408,34.9931658582131,30.304834529972368,26.32685643328324,21.603007443464918,14.179816173750396,8.994237583423512,5.406953764087795
B000005115,9585822403,강원,강원특별자치도교육청,장평초등학교,1954-02-02,강원특별자치도 평창군 용평면 장평리 404-1 번지,강원특별자치도 평창군 용평면 갈정지길 35-43,37.59256373,128.4107169,평창군,140.0,124.0,116.0,108.0,105.0,96.0,95.0,78.0,71.0,74.0,61.0,57.0,43.0,40.0,39.0,2962,2737,2506,2291,2063,1981,1886,1808,1738,1676,1646,1570,1466,1418,1329,1285,1168,1067,974,872,782,689,0.9632561464678768,42.19000398373488,34.859301779231174,28.53108876508695,22.704120346122473,16.313251757580787,10.674250061808706,4.84728164284423
B000004828,9609669387,강원,강원특별자치도교육청,근화초등학교,1954-08-23,강원특별자치도 춘천시 근화동 802-14 번지,강원특별자치도 춘천시 소양로163번길 23,37.88852203,127.7229056,춘천시,285.0,250.0,256.0,236.0,221.0,213.0,251.0,237.0,218.0,209.0,212.0,210.0,206.0,218.0,215.0,18262,17364,16391,15453,14274,13761,13431,13141,13168,13407,13633,13454,13276,13220,12937,12275,11675,11214,10764,10194,9710,9298,0.8191503604269224,206.45318999390454,199.87860017669647,194.82712366714162,189.89618130423554,183.65032097788787,178.34681852534004,173.83226685085717
B000004931,9686888575,강원,강원특별자치도교육청,주문진초등학교,1919-06-11,강원특별자치도 강릉시 주문진읍 교항리 161,강원특별자치도 강릉시 주문진읍 주문로 26,37.88688223,128.8266399,강릉시,1067.0,980.0,885.0,803.0,708.0,593.0,525.0,493.0,454.0,446.0,390.0,354.0,317.0,321.0,291.0,15873,15217,14515,13637,12479,11873,11310,10841,10397,10272,10161,9702,9360,9108,8703,8116,7516,7020,6672,6162,5819,5561,0.9971291197300084,194.43116448065393,128.168313090654,73.39102260825416,34.958568802054174,-21.364854879445716,-59.245118257395575,-87.73814435509553
B000004952,9707034647,강원,강원특별자치도교육청,창호초등학교,1963-11-11,강원특별자치도 동해시 묵호진동 85-7 번지,강원특별자치도 동해시 해맞이길 183,37.55924145,129.1081551,동해시,102.0,92.0,79.0,86.0,85.0,84.0,87.0,75.0,73.0,57.0,59.0,51.0,50.0,63.0,64.0,7945,7540,7176,6704,6185,5832,5516,5250,5017,4932,4831,4668,4582,4425,4320,4089,3792,3487,3188,2943,2655,2450,0.8523105983117333,55.92983665764955,52.55474857514272,49.088749029134014,45.69093308075171,42.90676951100702,39.63395682493979,37.30435057270443
B000004925,9788667142,강원,강원특별자치도교육청,성덕초등학교,1935-12-02,강원특별자치도 강릉시 입암동 625-1 번지,강원특별자치도 강릉시 용지로 60,37.75644211,128.910547,강릉시,1042.0,973.0,923.0,840.0,739.0,724.0,791.0,752.0,753.0,747.0,756.0,712.0,675.0,639.0,626.0,15873,15217,14515,13637,12479,11873,11310,10841,10397,10272,10161,9702,9360,9108,8703,8116,7516,7020,6672,6162,5819,5561,0.9411724102355052,611.9166130879777,582.7538049691527,558.6458835909241,541.7314548820057,516.9430679810043,500.27166267307615,487.7316551819814
B000005155,9811930477,강원,강원특별자치도교육청,문혜초등학교,1920-04-01,강원특별자치도 철원군 갈말읍 문혜리 1100번지,강원특별자치도 철원군 갈말읍 태봉로 1556,38.18684432,127.3180704,철원군,123.0,90.0,78.0,73.0,67.0,77.0,64.0,60.0,66.0,68.0,58.0,51.0,49.0,54.0,41.0,4191,3982,3715,3423,3113,2953,2801,2717,2691,2662,2639,2576,2560,2547,2460,2396,2295,2244,2153,2028,1919,1797,0.8977368819410583,48.781595748228725,45.589639484044625,43.97785958826849,41.10193859776598,37.15149767674606,33.70671319361668,29.851082854701232
B000005044,9827632665,강원,강원특별자치도교육청,매산초등학교,1938-12-01,강원특별자치도 홍천군 남면 유치리 1520 번지,강원특별자치도 홍천군 남면 시동안로 351,37.59114866,127.8467209,홍천군,76.0,59.0,54.0,41.0,31.0,33.0,28.0,28.0,28.0,30.0,32.0,32.0,28.0,23.0,13.0,5274,4932,4668,4314,3918,3756,3578,3443,3317,3185,3160,2945,2825,2770,2681,2596,2464,2352,2219,2010,1864,1763,0.9202348238850762,16.85774976761148,14.496214606476052,12.492487803088416,10.113062224065601,6.3739648856011755,3.7619638740422943,1.9550316674159447
B000005165,9840972900,강원,강원특별자치도교육청,철원초등학교,1903-04-20,강원특별자치도 철원군 철원읍 화지리 66번지,강원특별자치도 철원군 철원읍 금학로 297-18,38.21350087,127.2111787,철원군,379.0,332.0,305.0,261.0,250.0,232.0,226.0,212.0,206.0,213.0,194.0,174.0,135.0,127.0,120.0,4191,3982,3715,3423,3113,2953,2801,2717,2691,2662,2639,2576,2560,2547,2460,2396,2295,2244,2153,2028,1919,1797,0.9467049752288859,148.90771266590284,136.3256647768866,129.97235346659133,118.63605289331926,103.06421144651705,89.48556570490553,74.28744845282654
B000004958,9844081044,강원,강원특별자치도교육청,삼화초등학교,1942-05-27,강원특별자치도 동해시 삼화동 32-12 번지,강원특별자치도 동해시 파수길 38,37.48462946,129.0677054,동해시,254.0,233.0,204.0,189.0,163.0,151.0,140.0,119.0,119.0,111.0,97.0,84.0,75.0,60.0,61.0,7945,7540,7176,6704,6185,5832,5516,5250,5017,4932,4831,4668,4582,4425,4320,4089,3792,3487,3188,2943,2655,2450,0.99126791818285,57.119538013893674,41.969781436477035,26.411950607816834,11.160175467589312,-1.3370984767442735,-16.027771521511937,-26.484674209627798
B000005073,9911605119,강원,강원특별자치도교육청,안흥초등학교,1920-06-29,강원특별자치도 횡성군 안흥면 안흥리 89-1 번지,강원특별자치도 횡성군 안흥면 서동로 1257,37.420728,128.1644918,횡성군,80.0,84.0,61.0,49.0,51.0,46.0,57.0,52.0,64.0,57.0,53.0,46.0,44.0,40.0,47.0,2731,2495,2314,2111,1980,1924,1829,1759,1712,1671,1649,1530,1455,1429,1357,1284,1172,1147,1099,1019,936,894,0.8039874027539116,40.836237686322846,38.01939210872929,37.3906319351593,36.18341240190492,34.171379846480946,32.083896070228576,31.027578978631
B000004963,9919576108,강원,강원특별자치도교육청,황지초등학교,1935-11-28,강원특별자치도 태백시 황지동 85-1,강원특별자치도 태백시 황지로 63,37.16378702,128.9898295,태백시,1598.0,1528.0,1441.0,1362.0,1264.0,1220.0,1210.0,1185.0,1140.0,1079.0,1050.0,963.0,938.0,909.0,848.0,3336,3187,3038,2901,2775,2795,2772,2757,2776,2751,2721,2560,2422,2270,2039,1879,1688,1526,1351,1182,1067,916,0.9462278474684458,620.3706604084971,495.7076284356242,389.97249136962705,275.7524358970994,165.4484966122012,90.38960301596876,-8.165987706040823
B000005144,9946452915,강원,강원특별자치도교육청,임계초등학교,1922-07-15,강원특별자치도 정선군 임계면 송계리 746-2 번지,강원특별자치도 정선군 임계면 송계1길 7,37.49641199,128.8483571,정선군,153.0,141.0,111.0,112.0,92.0,86.0,81.0,84.0,94.0,85.0,83.0,73.0,67.0,61.0,46.0,2631,2455,2278,2085,1907,1838,1727,1728,1701,1659,1661,1547,1531,1442,1347,1241,1111,1053,945,877,791,737,0.9740084657270406,47.20383251416435,37.573421552790265,33.27677666233106,25.27612755595875,20.238681822316934,13.867794570946387,9.867470017760233
B000005116,9951128005,강원,강원특별자치도교육청,호명초등학교,1963-11-12,강원특별자치도 평창군 진부면 송정리 1311 번지,강원특별자치도 평창군 진부면 약수동길 11,37.64226944,128.5692449,평창군,114.0,114.0,104.0,111.0,111.0,111.0,111.0,93.0,88.0,87.0,66.0,57.0,52.0,58.0,51.0,2962,2737,2506,2291,2063,1981,1886,1808,1738,1676,1646,1570,1466,1418,1329,1285,1168,1067,974,872,782,689,0.8147188673407487,61.374852016711785,56.512259208032866,52.31463635609636,48.44949848253106,44.21031500829815,40.469859001622055,36.60472112805676
B000005101,9986621141,강원,강원특별자치도교육청,구래초등학교,1939-09-25,강원특별자치도 영월군 상동읍 구래리 102-171 번지,강원특별자치도 영월군 상동읍 교촌길 20,37.14185819,128.8390436,영월군,31.0,33.0,36.0,29.0,31.0,28.0,18.0,16.0,16.0,17.0,16.0,19.0,16.0,16.0,14.0,2789,2519,2362,2124,1922,1802,1699,1627,1519,1472,1419,1320,1246,1184,1114,1022,947,886,837,762,694,653,0.8856196572050492,12.632283091181613,11.613680799522298,10.785217602306055,10.119730771755304,9.101128480095989,8.17759573565821,7.620759816217786
B000003723,1087284445,경기,경기도교육청,대일초등학교,1988-12-27,경기도 성남시 중원구 상대원동 2511,경기도 성남시 중원구 금상로58번길 22,37.43846881,127.1641844,중원구,1017.0,922.0,813.0,722.0,657.0,596.0,541.0,497.0,459.0,421.0,398.0,352.0,328.0,309.0,304.0,22763,21284,19984,18666,17268,16641,16046,15210,14714,14410,14210,13612,13169,12998,12554,11974,11096,10282,9392,8364,7459,6899,0.9983883906716859,249.7869031570301,186.74908208001204,128.30627301771972,64.4068871879407,-9.400493298590732,-74.37683506932115,-114.58319019817088
B000004618,1098245024,경기,경기도교육청,토평초등학교,1972-03-01,경기도 구리시 토평동 611-3,경기도 구리시 벌말로129번길 17-1,37.58782449,127.1463829,구리시,681.0,658.0,596.0,548.0,523.0,500.0,476.0,472.0,441.0,446.0,437.0,395.0,398.0,357.0,316.0,14134,13554,13126,12657,12239,12293,12146,11822,11763,11846,11759,11211,10656,10272,9654,9100,8535,8076,7660,7081,6624,6133,0.9752782977129788,239.8132819237162,191.48239349022708,152.21889297523342,116.63367246491225,67.10520449501814,28.012786770939442,-13.98803839869447
B000004804,1107466995,경기,경기도교육청,방일초등학교,1943-04-01,경기도 가평군 설악면 방일리 50,경기도 가평군 설악면 양방가루재길 76,37.62929786,127.4994479,가평군,81.0,76.0,74.0,78.0,69.0,57.0,62.0,63.0,61.0,55.0,59.0,53.0,52.0,52.0,52.0,3726,3447,3269,3025,2812,2639,2619,2569,2519,2502,2520,2462,2376,2321,2267,2230,2111,2013,1912,1794,1630,1449,0.932064763863657,51.83026654319967,49.23037487057884,47.08928761077345,44.882656863422994,42.304613019983854,38.72156903418708,34.76711195230162
B000003839,1120972990,경기,경기도교육청,안양양지초등학교,1989-05-01,경기도 안양시 만안구 안양동 977-1,경기도 안양시 만안구 병목안로130번길 69,37.39224518,126.9045522,만안구,692.0,646.0,573.0,518.0,482.0,451.0,429.0,400.0,371.0,378.0,363.0,365.0,363.0,355.0,341.0,20231,18846,17934,17140,16387,15990,15567,14894,14536,14396,14164,13550,13106,12892,12469,11814,11266,10888,10303,9706,9085,8701,0.9759934388087486,273.45768289777465,247.25033307302255,229.17300052967158,201.19617635543807,172.6454686083997,142.94699371575183,124.58271938599853
B000003789,1171584129,경기,경기도교육청,약대초등학교,1949-10-01,경기도 부천시 원미구 약대동 112,경기도 부천시 원미구 수도로66번길 14,37.51360773,126.7727484,부천시,488.0,446.0,403.0,448.0,428.0,417.0,412.0,398.0,400.0,393.0,375.0,341.0,301.0,284.0,251.0,64862,60829,58127,55489,53179,53027,52961,51977,51342,51434,51308,49240,47871,46508,44405,42196,39302,36828,33831,30834,28204,25484,0.8842369621874433,270.4531046858526,239.11961227212282,212.3334822681258,179.8848033586758,147.43612444922587,118.96097412161379,89.51138899191614
B000003800,1232424676,경기,경기도교육청,중흥초등학교,1992-03-21,경기도 부천시 원미구 중동 1053,경기도 부천시 원미구 계남로 214,37.50668196,126.7732474,부천시,1058.0,994.0,919.0,914.0,878.0,865.0,881.0,927.0,942.0,936.0,912.0,897.0,839.0,842.0,808.0,64862,60829,58127,55489,53179,53027,52961,51977,51342,51434,51308,49240,47871,46508,44405,42196,39302,36828,33831,30834,28204,25484,0.8682576374890142,799.003539727938,769.5058963370496,744.2891825329523,713.741692124351,683.1942017157495,656.3874283508441,628.6633129316263
B000004089,1256018459,경기,경기도교육청,냉정초등학교,1996-03-01,경기도 시흥시 정왕동 1872-3,경기도 시흥시 역전로 369,37.35779542,126.7351716,시흥시,1424.0,1289.0,1204.0,1122.0,1087.0,1047.0,981.0,897.0,844.0,813.0,753.0,665.0,605.0,562.0,549.0,30411,31506,31731,31109,29936,29430,29017,28347,27921,27665,26930,25514,24146,23060,21625,20133,19208,18984,18932,18927,19054,19105,0.9246773487665947,296.6321048388347,221.96209594038623,203.87984513687002,199.682179771768,199.27855810204665,209.53054851296883,213.64748954412653
B000004637,1295727491,경기,경기도교육청,의정부초등학교,1945-09-30,경기도 의정부시 신곡동 420-3,경기도 의정부시 동일로522번길 30,37.73474849,127.0602214,의정부시,958.0,855.0,801.0,710.0,644.0,638.0,566.0,533.0,504.0,488.0,437.0,387.0,381.0,348.0,292.0,29528,28858,28036,26704,25067,24787,24678,24135,24041,23813,23698,22509,21525,20805,19853,18910,17786,16959,16093,15203,14505,13942,0.9816485716595829,184.99452787669043,108.17937554281207,51.661465418152375,-7.521739138020848,-68.3451248828178,-116.04706111862492,-154.5229781684235
B000003787,1300524353,경기,경기도교육청,송내초등학교,1992-05-04,경기도 부천시 원미구 상동 430,경기도 부천시 원미구 석천로 27,37.4906788,126.7587493,부천시,417.0,352.0,325.0,288.0,271.0,291.0,290.0,295.0,284.0,268.0,272.0,232.0,212.0,197.0,168.0,64862,60829,58127,55489,53179,53027,52961,51977,51342,51434,51308,49240,47871,46508,44405,42196,39302,36828,33831,30834,28204,25484,0.9712300450866378,158.39013826021784,126.00607309176081,98.32183769896102,64.78519522837854,31.248552757796062,1.8186663054664223,-28.618326527361205
B000004441,1311128735,경기,경기도교육청,북내초등학교,1919-10-23,경기도 여주시 북내면 당우리 175,경기도 여주시 북내면 여양2로 304,37.32941704,127.6806122,여주시,218.0,186.0,179.0,156.0,127.0,124.0,116.0,113.0,133.0,113.0,120.0,117.0,117.0,109.0,103.0,7754,7481,7194,6884,6460,6226,6026,5897,5751,5639,5625,5414,5352,5216,5082,4808,4544,4296,4003,3638,3325,3114,0.9321837769201403,86.14054258818794,76.3287900933046,67.11168926477782,56.22213062462319,42.65663948586402,31.023766262763687,23.181797412686464
B000004048,1311183989,경기,경기도교육청,태을초등학교,1994-10-01,경기도 군포시 산본동 1089,경기도 군포시 산본로 451-49,37.37205306,126.9263632,군포시,941.0,883.0,822.0,783.0,709.0,659.0,612.0,598.0,581.0,554.0,488.0,464.0,446.0,416.0,404.0,26699,25772,24455,23029,21801,21251,21195,20585,20510,20892,21059,20613,20404,20379,19775,18414,16839,15665,14092,12430,11073,10205,0.9238992042809515,362.5537428503392,244.2471707045263,156.06182740345685,37.905485825448295,-86.93611601984765,-188.8675562750019,-254.06762270202773
B000004619,1320151686,경기,경기도교육청,도림초등학교,1996-09-01,경기도 구리시 교문동 396-1,경기도 구리시 아차산로 431,37.5932866,127.1299671,구리시,513.0,457.0,423.0,376.0,332.0,313.0,293.0,263.0,230.0,212.0,177.0,155.0,138.0,144.0,141.0,14134,13554,13126,12657,12239,12293,12146,11822,11763,11846,11759,11211,10656,10272,9654,9100,8535,8076,7660,7081,6624,6133,0.9377318592633752,3.2934764870069557,-51.276864730215266,-95.60923042703826,-135.7884551108691,-191.71098177418173,-235.8501781215632,-283.27325340945015
B000004687,1351013183,경기,경기도교육청,와석초등학교,2006-03-01,경기도 파주시 야당동 1008,경기도 파주시 한빛로 7,37.710475,126.753037,파주시,353.0,383.0,386.0,1103.0,487.0,533.0,587.0,645.0,711.0,1002.0,1245.0,1344.0,1371.0,1480.0,1500.0,14784,15041,15023,15251,15734,16700,17332,17782,19129,20603,22008,22479,23211,24166,24258,23721,22566,21678,20358,18822,17676,16695,0.9005152184371116,1399.4240551104212,1273.8623138875869,1177.3265336227587,1033.827400796662,866.8465916899318,742.2632536454573,635.6173072042448
B000004058,1402501404,경기,경기도교육청,곡란초등학교,1994-09-01,경기도 군포시 산본동 1058,경기도 군포시 고산로677번길 24-42,37.37424391,126.9338506,군포시,669.0,607.0,586.0,566.0,526.0,481.0,482.0,450.0,439.0,363.0,355.0,354.0,339.0,289.0,284.0,26699,25772,24455,23029,21801,21251,21195,20585,20510,20892,21059,20613,20404,20379,19775,18414,16839,15665,14092,12430,11073,10205,0.8818405096444846,277.83912677596265,198.72823344496828,139.75922470173828,60.74878964798961,-22.732038743193016,-90.89297985440533,-134.49187217904228
B000004088,1430127620,경기,경기도교육청,시흥초등학교,1997-02-14,경기도 시흥시 정왕동 1871-4,경기도 시흥시 정왕대로143번길 15,37.351934,126.7320864,시흥시,1369.0,1263.0,1162.0,1058.0,986.0,937.0,908.0,883.0,849.0,844.0,819.0,731.0,679.0,670.0,630.0,30411,31506,31731,31109,29936,29430,29017,28347,27921,27665,26930,25514,24146,23060,21625,20133,19208,18984,18932,18927,19054,19105,0.8805629173849818,441.42504223020705,384.4507696368414,370.65375659801566,367.45087857114527,367.14290953010004,374.9653231726486,378.1066073913098
B000030422,1441815078,경기,경기도교육청,복사초등학교,1989-09-01,경기도 부천시 소사구 계수동 1,경기도 부천시 소사구 은성로 210,37.46731,126.807979,부천시,401.0,316.0,261.0,207.0,181.0,175.0,173.0,161.0,147.0,156.0,149.0,136.0,144.0,133.0,124.0,64862,60829,58127,55489,53179,53027,52961,51977,51342,51434,51308,49240,47871,46508,44405,42196,39302,36828,33831,30834,28204,25484,0.9459329897402029,44.598111927177115,4.8007697483560605,-29.220869695459896,-70.43463421167502,-111.6483987278902,-147.81529918756513,-185.21985023331263
B000004047,1442196488,경기,경기도교육청,궁내초등학교,1994-02-28,경기도 군포시 산본동 1149-3,경기도 군포시 수리산로 187,37.36461098,126.9201699912,군포시,883.0,827.0,812.0,735.0,681.0,663.0,694.0,697.0,698.0,693.0,655.0,641.0,619.0,570.0,563.0,26699,25772,24455,23029,21801,21251,21195,20585,20510,20892,21059,20613,20404,20379,19775,18414,16839,15665,14092,12430,11073,10205,0.9256253566057698,559.0258236367048,497.31539216736337,451.3166324562478,389.68456343956586,324.56536527953693,271.3964411500789,237.38713669586406
B000004640,1501120328,경기,경기도교육청,의정부효자초등학교,2005-09-01,경기도 의정부시 신곡동 784-1,경기도 의정부시 부용로204번길 16,37.75027839,127.0779303,의정부시,797.0,812.0,799.0,775.0,733.0,682.0,622.0,573.0,525.0,490.0,459.0,421.0,397.0,370.0,356.0,29528,28858,28036,26704,25067,24787,24678,24135,24041,23813,23698,22509,21525,20805,19853,18910,17786,16959,16093,15203,14505,13942,0.9409996379408713,270.2193829288975,206.84865990498622,160.22269198614777,111.39791784139061,61.22003217299118,21.867038693729683,-9.874702465044379
B000003814,1519677460,경기,경기도교육청,부천덕산초등학교,1988-11-25,경기도 부천시 오정구 오정동 113-2,경기도 부천시 오정구 오정로252번길 91,37.52986362,126.7907569,부천시,1031.0,966.0,898.0,808.0,758.0,736.0,729.0,745.0,741.0,755.0,784.0,717.0,696.0,631.0,553.0,64862,60829,58127,55489,53179,53027,52961,51977,51342,51434,51308,49240,47871,46508,44405,42196,39302,36828,33831,30834,28204,25484,0.9746447288745297,535.5980064685723,471.88627704288183,417.42089397475536,351.4416081804243,285.4623223860932,227.56258209944292,167.68148187902898
B000003852,1528281450,경기,경기도교육청,샘모루초등학교,2004-03-01,경기도 안양시 동안구 비산동 405,경기도 안양시 동안구 관악대로 155,37.399621,126.9408353,동안구,1345.0,1272.0,1228.0,1177.0,1108.0,1023.0,994.0,935.0,900.0,887.0,867.0,839.0,808.0,786.0,795.0,26963,25643,24972,23902,22708,22555,22598,22158,21710,21416,21071,20432,20015,19916,19252,18251,17226,16252,14930,13644,12878,12230,0.9791277168531125,661.8144643049085,577.9308226171946,498.2209035890645,390.0314652367157,284.78818405583763,222.1005064628729,169.06967737639638
B000003637,1548652827,경기,경기도교육청,영화초등학교,1954-09-20,경기도 수원시 장안구 조원동 556,경기도 수원시 장안구 경수대로 838,37.29686206,127.0163697,장안구,1176.0,1134.0,1034.0,946.0,859.0,766.0,745.0,733.0,709.0,672.0,652.0,580.0,552.0,530.0,570.0,26973,26098,25147,23728,21649,20408,18932,17875,17253,16982,16645,15993,15719,15639,14995,14182,13115,11909,10519,8936,7875,7020,0.9865865578927951,505.6356124438072,452.1784503298567,391.7573280154945,322.117726011379,242.80874041964165,189.65218090426998,146.81631060677444
B000003864,1560684680,경기,경기도교육청,안양덕현초등학교,1991-09-10,경기도 안양시 동안구 호계동 1101,경기도 안양시 동안구 갈산로 34,37.37549471,126.9623993,동안구,1114.0,969.0,879.0,766.0,640.0,574.0,535.0,460.0,401.0,266.0,277.0,468.0,510.0,538.0,550.0,26963,25643,24972,23902,22708,22555,22598,22158,21710,21416,21071,20432,20015,19916,19252,18251,17226,16252,14930,13644,12878,12230,0.8255212122453282,228.0947742001158,136.07063214907726,48.62525228789514,-70.06344604524907,-185.5200769502594,-254.2912894488893,-312.46850315530196
B000003858,1628850877,경기,경기도교육청,동안초등학교,1992-09-01,경기도 안양시 동안구 평촌동 898-1,경기도 안양시 동안구 관평로138번길 36,37.389519,126.9649077,동안구,969.0,961.0,896.0,850.0,768.0,740.0,705.0,643.0,630.0,600.0,565.0,538.0,527.0,524.0,493.0,26963,25643,24972,23902,22708,22555,22598,22158,21710,21416,21071,20432,20015,19916,19252,18251,17226,16252,14930,13644,12878,12230,0.980728669977746,398.4142819234513,324.5897374294642,254.43841417371448,159.22275776293293,66.59996340267196,11.429620883262942,-35.241896026106474
B000004632,1656288802,경기,경기도교육청,회룡초등학교,1995-11-01,경기도 의정부시 호원동 274-27,경기도 의정부시 안말로 57,37.71538947,127.044923,의정부시,1147.0,1023.0,930.0,869.0,814.0,748.0,752.0,732.0,737.0,727.0,712.0,669.0,655.0,628.0,557.0,29528,28858,28036,26704,25067,24787,24678,24135,24041,23813,23698,22509,21525,20805,19853,18910,17786,16959,16093,15203,14505,13942,0.9675827870336986,479.73285625049994,419.74134045284666,375.60167535973335,329.3804541134988,281.87827523457395,244.62375741717005,214.57462628364794
B000004041,1663685262,경기,경기도교육청,광정초등학교,1993-06-01,경기도 군포시 산본동 1092-2,경기도 군포시 산본로386번길 5-20,37.36593675,126.9305979,군포시,1061.0,973.0,903.0,851.0,800.0,757.0,722.0,693.0,641.0,623.0,602.0,587.0,553.0,520.0,502.0,26699,25772,24455,23029,21801,21251,21195,20585,20510,20892,21059,20613,20404,20379,19775,18414,16839,15665,14092,12430,11073,10205,0.9405861266651295,457.3617700822126,338.87782704925394,250.56027205198848,132.2267848197066,7.198014457308545,-94.88624630188178,-160.1840637956011
B000004152,1668624281,경기,경기도교육청,효덕초등학교,1948-05-01,경기도 평택시 고덕면 방축리 643-1,경기도 평택시 고덕면 효덕새싹길 6-5,37.016709,127.0355926,평택시,808.0,739.0,678.0,601.0,523.0,520.0,526.0,514.0,476.0,450.0,436.0,404.0,409.0,506.0,495.0,32949,30750,28827,27272,26081,25968,26227,26287,26545,26958,27123,26505,26296,26449,26242,25748,24719,24019,23256,22508,22255,22013,0.8778779428008618,454.4563873298305,400.6647775534973,364.07184573286236,324.1855500483705,285.08338861717766,271.8576575448626,259.20695825830035
B000004115,1691842019,경기,경기도교육청,평택성동초등학교,1913-06-03,경기도 평택시 비전동 611-1,경기도 평택시 중앙로 89,36.99536292,127.0933789,평택시,879.0,791.0,680.0,588.0,517.0,492.0,456.0,423.0,419.0,428.0,392.0,352.0,316.0,297.0,272.0,32949,30750,28827,27272,26081,25968,26227,26287,26545,26958,27123,26505,26296,26449,26242,25748,24719,24019,23256,22508,22255,22013,0.8755034317472381,360.06274811822277,279.4250679667232,224.5695032378121,164.77693768329868,106.15984851583357,86.33348012095576,67.36912774324651
B000003809,1693582773,경기,경기도교육청,부천수주초등학교,1996-11-01,경기도 부천시 오정구 고강동 275-2,경기도 부천시 오정구 고강로 99,37.53127063,126.8149996,부천시,1137.0,996.0,889.0,790.0,715.0,693.0,615.0,597.0,552.0,534.0,482.0,468.0,453.0,415.0,409.0,64862,60829,58127,55489,53179,53027,52961,51977,51342,51434,51308,49240,47871,46508,44405,42196,39302,36828,33831,30834,28204,25484,0.9732059102715268,222.43440475593275,106.24427394728878,6.916567098434143,-113.40887244320584,-233.73431198484582,-339.32520487590796,-448.52947432978203
B000004788,1693827927,경기,경기도교육청,관인초등학교,1930-04-01,경기도 포천시 관인면 탄동리 664-1,경기도 포천시 관인면 관인로 5,38.15606601,127.2497002,포천시,134.0,105.0,83.0,69.0,56.0,51.0,48.0,41.0,45.0,44.0,41.0,38.0,32.0,32.0,22.0,11791,11318,10538,9846,9317,9028,8747,8360,8281,8107,7905,7457,7087,6886,6604,6290,5761,5322,4914,4365,3934,3565,0.9549148159428169,10.86073288254616,1.1454118117212744,-6.9170190958252675,-14.41012116935373,-24.492751165351564,-32.40825850282893,-39.185108172270105
B000003807,1699625253,경기,경기도교육청,동산초등학교,2006-09-01,경기도 부천시 오정구 오정동 727,경기도 부천시 오정구 오정로251번길 50,37.53145027,126.7851807,부천시,561.0,561.0,522.0,473.0,455.0,451.0,435.0,411.0,391.0,394.0,392.0,347.0,350.0,361.0,382.0,64862,60829,58127,55489,53179,53027,52961,51977,51342,51434,51308,49240,47871,46508,44405,42196,39302,36828,33831,30834,28204,25484,0.9329779194454666,300.43723651579955,264.5486295025421,233.8684588906558,196.70254485515738,159.5366308196589,126.92189811583478,93.19107189743107
B000004365,1701412141,경기,경기도교육청,이천가산초등학교,1936-04-10,경기도 이천시 부발읍 가산리 305-1,경기도 이천시 부발읍 황무로2065번길 112,37.24160247,127.5178501,이천시,443.0,404.0,342.0,290.0,249.0,262.0,236.0,217.0,228.0,227.0,227.0,240.0,216.0,214.0,188.0,18304,17857,17073,16014,14951,14543,14145,13671,13598,13723,13806,13272,13035,13051,12616,12012,11165,10511,9785,8965,8276,7711,0.9689359432101641,161.97859700022218,128.65295741684423,102.9209995803281,74.35616565171841,42.09285460287555,14.983804221591697,-7.246404001086603
B000003669,1702535450,경기,경기도교육청,화서초등학교,1969-11-03,경기도 수원시 팔달구 화서동 104-2,경기도 수원시 팔달구 팔달로127번길 54-11,37.28119982,127.0005411,팔달구,1065.0,1074.0,843.0,709.0,618.0,560.0,540.0,518.0,463.0,463.0,461.0,438.0,389.0,368.0,353.0,31984,30325,27382,23828,19804,16698,14005,13392,12979,12783,12635,12073,11549,11192,10588,9827,8819,7828,6844,6058,5501,5229,0.9815906585308671,355.3451717611827,324.06484101424115,293.31205552791266,262.7764945606601,238.38528427584262,221.1004189722251,212.65969480241546
B000004329,1779570639,경기,경기도교육청,운양초등학교,2001-01-23,경기도 김포시 운양동 273-3,경기도 김포시 전원로 38번길 99,37.64621086,126.690086,김포시,895.0,839.0,801.0,725.0,771.0,764.0,739.0,741.0,696.0,945.0,1189.0,1263.0,1276.0,1312.0,1317.0,12322,12875,13333,13223,12775,12514,12220,11917,11813,12200,13188,14202,15845,17639,18834,19708,20066,20216,19837,19440,19303,18896,0.8158507172678777,1517.8974007631623,1551.4222579291475,1565.4689857919905,1529.9775867252072,1492.8005803148828,1479.9712355334862,1441.857780598972
B000004367,1801427423,경기,경기도교육청,신하초등학교,1959-04-04,경기도 이천시 부발읍 신하리 374-2,경기도 이천시 부발읍 경충대로2250번길 12,37.26109025,127.4792851,이천시,2002.0,1765.0,1616.0,1472.0,1315.0,1244.0,1121.0,1049.0,1018.0,964.0,935.0,856.0,814.0,751.0,695.0,18304,17857,17073,16014,14951,14543,14145,13671,13598,13723,13806,13272,13035,13051,12616,12012,11165,10511,9785,8965,8276,7711,0.9860961878812563,619.7775596949114,441.2693628288266,303.43658744462437,150.4295615594092,-22.388291368795308,-167.59743852432348,-286.67315426144
B000003850,1824255704,경기,경기도교육청,안양서초등학교,1972-11-25,경기도 안양시 만안구 안양동 931,경기도 안양시 만안구 양화로37번길 32,37.3969151,126.911039,만안구,997.0,922.0,821.0,788.0,778.0,748.0,765.0,717.0,728.0,685.0,670.0,616.0,571.0,527.0,480.0,20231,18846,17934,17140,16387,15990,15567,14894,14536,14396,14164,13550,13106,12892,12469,11814,11266,10888,10303,9706,9085,8701,0.9684642151665493,505.30865914205856,473.0291498902135,450.763357012116,416.30439184363183,381.13857610758896,344.55905923642877,321.93984107455196
B000004049,1841863334,경기,경기도교육청,군포화산초등학교,1992-04-01,경기도 군포시 금정동 871-5,경기도 군포시 오금로 48,37.35326066,126.934562,군포시,624.0,579.0,496.0,473.0,432.0,411.0,395.0,378.0,371.0,371.0,345.0,328.0,288.0,273.0,258.0,26699,25772,24455,23029,21801,21251,21195,20585,20510,20892,21059,20613,20404,20379,19775,18414,16839,15665,14092,12430,11073,10205,0.9510958188015675,235.96914396928162,161.0801598147159,105.25814876870936,30.464261736879507,-48.561447256700376,-113.08484503304692,-154.35699630045207
B000003848,1842453956,경기,경기도교육청,안양초등학교,1927-12-20,경기도 안양시 만안구 안양동 378-1,경기도 안양시 만안구 현충로28번길 54,37.39417913,126.9279515,만안구,1960.0,1770.0,1648.0,1449.0,1284.0,1202.0,1182.0,1127.0,1045.0,981.0,959.0,877.0,895.0,943.0,952.0,20231,18846,17934,17140,16387,15990,15567,14894,14536,14396,14164,13550,13106,12892,12469,11814,11266,10888,10303,9706,9085,8701,0.9741991190822074,686.0225930146112,606.3197895929852,551.3423084006956,466.25811131739056,379.42859737083813,289.10844969779123,233.25831007387796
B000004651,1884892940,경기,경기도교육청,동오초등학교,1996-03-01,경기도 의정부시 신곡동 669-3,경기도 의정부시 추동로23번길 10,37.74456302,127.0584382,의정부시,1339.0,1229.0,1150.0,995.0,911.0,893.0,844.0,787.0,781.0,752.0,740.0,673.0,617.0,578.0,528.0,29528,28858,28036,26704,25067,24787,24678,24135,24041,23813,23698,22509,21525,20805,19853,18910,17786,16959,16093,15203,14505,13942,0.9879113507887584,385.9651266840408,292.3614203772984,223.49107774769345,151.3729196857371,77.25610597310288,19.128537465890986,-27.756593006258527
B000004820,1895126640,경기,경기도교육청,백학초등학교,1954-12-20,경기도 연천군 백학면 두일리 16,경기도 연천군 백학면 백학로40번길 23,38.03160096,126.921547,연천군,117.0,99.0,84.0,69.0,58.0,46.0,55.0,55.0,57.0,61.0,55.0,55.0,43.0,44.0,39.0,3638,3432,3259,3034,2731,2572,2421,2298,2211,2140,2172,2234,2298,2341,2377,2380,2296,2134,1964,1805,1584,1399,0.8772948087809698,53.560603951149844,50.315479884767186,44.05702632817207,37.48951333668339,31.346957068173367,22.809190179238065,15.66219074732389
B000004537,1922384858,경기,경기도교육청,행신초등학교,1988-03-01,경기도 고양시 덕양구 행신동 983-1,경기도 고양시 덕양구 중앙로 527,37.62194692,126.8364546,덕양구,925.0,827.0,754.0,708.0,596.0,547.0,510.0,474.0,454.0,432.0,418.0,414.0,389.0,315.0,273.0,35573,33817,31841,29445,27080,26038,25136,24036,23412,23185,22925,22001,21703,21736,21429,20873,19898,19364,18677,17809,17287,16913,0.9859536289881651,330.3111829894907,290.9167408193575,269.3407078769461,241.58277785552912,206.51162318509262,185.4204449155444,170.30914094464197
B000004769,1957021832,경기,경기도교육청,가산초등학교,1931-12-01,경기도 포천시 가산면 마산리 606-2,경기도 포천시 가산면 가산로309번길 25,37.84722928,127.1862107,포천시,408.0,365.0,327.0,285.0,247.0,234.0,202.0,180.0,169.0,152.0,139.0,127.0,141.0,131.0,123.0,11791,11318,10538,9846,9317,9028,8747,8360,8281,8107,7905,7457,7087,6886,6604,6290,5761,5322,4914,4365,3934,3565,0.980046095922575,73.0436531688029,42.46381967913419,17.086604363511185,-6.498598025496051,-38.23456888717496,-63.1493292539939,-84.48006376758133
B000003649,1981912732,경기,경기도교육청,고색초등학교,1950-06-01,경기도 수원시 권선구 고색동 887-59,경기도 수원시 권선구 매송고색로 681,37.25156123,126.9783835,권선구,1012.0,927.0,854.0,730.0,671.0,676.0,670.0,646.0,610.0,604.0,577.0,531.0,495.0,473.0,483.0,28136,26066,24604,22818,21075,20349,19767,19226,18974,19169,19756,19504,19597,20293,20767,20798,20154,19479,18365,16835,15434,14212,0.8854403416463054,636.4437516317565,603.7848708990998,569.5539011870761,513.0601230253066,435.4699250113862,364.4216456535414,302.4509123378481
B000003869,1994758367,경기,경기도교육청,희성초등학교,1991-03-13,경기도 안양시 동안구 비산동 1101-1,경기도 안양시 동안구 학의로 86,37.39836601,126.9487102,동안구,782.0,723.0,690.0,605.0,587.0,577.0,556.0,499.0,465.0,447.0,388.0,328.0,285.0,264.0,232.0,26963,25643,24972,23902,22708,22555,22598,22158,21710,21416,21071,20432,20015,19916,19252,18251,17226,16252,14930,13644,12878,12230,0.9746286621002042,186.5254296168505,109.41446351603281,36.14023816754866,-63.314100549798695,-160.06015167726355,-217.68649317309416,-266.43566979097704
B000003626,2044669985,경기,경기도교육청,송정초등학교,1981-12-30,경기도 수원시 장안구 송죽동 404,경기도 수원시 장안구 송정로 41,37.29707655,127.0017089,장안구,779.0,727.0,684.0,638.0,623.0,534.0,498.0,482.0,517.0,560.0,582.0,547.0,543.0,538.0,541.0,26973,26098,25147,23728,21649,20408,18932,17875,17253,16982,16645,15993,15719,15639,14995,14182,13115,11909,10519,8936,7875,7020,0.861176134103156,488.2005402569239,468.90945038424616,447.1052757015383,421.97442760123647,393.35418836182805,374.17157697015887,358.713393426448
B000003878,2053235888,경기,경기도교육청,청계초등학교,1983-03-02,경기도 과천시 별양동 4,경기도 과천시 꿈보람길 34,37.43147178,126.9963233,과천시,1508.0,1384.0,1279.0,1201.0,1096.0,1044.0,976.0,826.0,678.0,617.0,676.0,638.0,624.0,972.0,1013.0,6716,6115,5585,4950,4236,3711,3388,3204,3042,3104,3246,3370,3381,3280,3117,2869,2579,2305,2179,2184,2329,2611,0.8823390669913106,724.6895295042951,663.696965078315,606.0695076551474,579.5692900079973,580.6208859463763,611.1171681593664,670.4271790839404
B000004386,2143726110,경기,경기도교육청,장천초등학교,1944-04-01,경기도 이천시 설성면 장천리 360-1,경기도 이천시 설성면 설성로 165-25,37.14575302,127.5283281,이천시,115.0,99.0,100.0,83.0,73.0,75.0,72.0,71.0,64.0,65.0,67.0,67.0,68.0,68.0,65.0,18304,17857,17073,16014,14951,14543,14145,13671,13598,13723,13806,13272,13035,13051,12616,12012,11165,10511,9785,8965,8276,7711,0.9587967199008915,55.26041536265163,48.328618133301575,42.97632133519657,37.03478085289652,30.3239500051196,24.685215304975344,20.06128917205588
B000004552,2200592696,경기,경기도교육청,능곡초등학교,1929-10-07,경기도 고양시 덕양구 토당동 278-2,경기도 고양시 덕양구 토당로67번길 66,37.624451,126.8159437,덕양구,1724.0,1529.0,1325.0,1173.0,1055.0,971.0,878.0,807.0,778.0,749.0,681.0,610.0,566.0,543.0,652.0,35573,33817,31841,29445,27080,26038,25136,24036,23412,23185,22925,22001,21703,21736,21429,20873,19898,19364,18677,17809,17287,16913,0.9935330212039105,544.1303693004274,468.9675313341893,427.8014231557572,374.8405311733927,307.92633286088517,267.68530576511466,238.8536120221679
B000003832,2252776682,경기,경기도교육청,부천일신초등학교,2003-03-01,경기도 부천시 소사구 범박동 153-8,경기도 부천시 소사구 범안로96번길 26,37.47362374,126.8070013,부천시,1277.0,1232.0,1219.0,1168.0,1217.0,1194.0,1201.0,1205.0,1196.0,1127.0,1100.0,1058.0,1010.0,971.0,947.0,64862,60829,58127,55489,53179,53027,52961,51977,51342,51434,51308,49240,47871,46508,44405,42196,39302,36828,33831,30834,28204,25484,0.8522876205283656,968.5121241022762,921.4753885462322,881.2649933265872,832.5541790689977,783.8433648114083,741.0974717525291,696.8887914787076
B000003625,2256055951,경기,경기도교육청,천일초등학교,1997-12-01,경기도 수원시 장안구 천천동 570,경기도 수원시 장안구 정자로19번길 13,37.30095712,126.9781743,장안구,1188.0,1109.0,1046.0,1022.0,920.0,837.0,811.0,745.0,692.0,666.0,639.0,576.0,506.0,465.0,423.0,26973,26098,25147,23728,21649,20408,18932,17875,17253,16982,16645,15993,15719,15639,14995,14182,13115,11909,10519,8936,7875,7020,0.9767105329060662,467.4123392130218,406.6015686561676,337.86887016360333,258.6495908065018,168.43079999909776,107.96198316608718,59.23357751837369
B000003631,2263783395,경기,경기도교육청,수원동신초등학교,1999-09-01,경기도 수원시 장안구 정자동 870-3,경기도 수원시 장안구 만석로68번길 46,37.29567288,126.9891755,장안구,1029.0,994.0,953.0,918.0,857.0,833.0,864.0,819.0,810.0,802.0,780.0,766.0,692.0,623.0,549.0,26973,26098,25147,23728,21649,20408,18932,17875,17253,16982,16645,15993,15719,15639,14995,14182,13115,11909,10519,8936,7875,7020,0.899080472256762,665.29886168541,634.9904623209718,600.7337335173052,561.2504391250192,516.2849319142359,486.14696403638317,461.8604771979627
